sensor_name,sensor_id,date_installed,street_name,borough,zipcode,census_tract,nta,latitude,longitude,lowest_point_height_delta_inches,tidally_influenced,date_removed,deployment_id,dev_id,sensor_status,date_updated,deploy_type,date_deployed,requested_by,in_floodplain
BK - Georgia Ave/ Livonia Ave,BK-livonia-ave-georgia-ave-2tzr8o,2026-03-06T00:00:00.000,Georgia Avenue,Brooklyn,11207,3112600,BK0503,40.664423,-73.895839,7.95,No,,properly-pro-wallaby,fs5-00859,good,2026-05-19T10:32:02.513Z,pluvial,2026-03-06T12:58:00,,False
BK - Lott Ave/Thatford Ave,BK-lott-ave-thatford-ave-2tzqlc,2026-03-06T00:00:00.000,Lott Avenue,Brooklyn,11212,3092000,BK1602,40.658076,-73.90676,8.19,No,,generally-measured-sheepdog,fs5-00638,good,2026-05-19T10:33:37.074Z,pluvial,2026-03-06T12:44:00,,False
BK - Linden Blvd/Vermont St,BK-vermont-st-linden-blvd-2tzqx0,2026-03-06T00:00:00.000,Linden Boulevard,Brooklyn,11207,3110400,BK0503,40.659197,-73.888368,11.42,No,,sensibly-relaxing-stork,fs5-00809,good,2026-05-19T10:32:42.267Z,pluvial,2026-03-06T12:51:00,,False
BK - Halsey St/Saratoga Ave,BK-halsey-st-saratoga-ave-2tzmno,2026-03-06T00:00:00.000,Halsey Street,Brooklyn,11233,3037700,BK0302,40.685532,-73.917807,6.97,No,,basically-great-roughy,fs5-00803,good,2026-05-19T10:27:27.401Z,pluvial,2026-03-06T11:19:00,,False
BK - Brooklyn Ave/St Marks Ave,BK-saint-marks-ave-brooklyn-ave-2tzmc0,2026-03-06T00:00:00.000,Brooklyn Avenue,Brooklyn,11213,3034100,BK0802,40.674788,-73.944409,6.14,No,,humbly-sound-zebra,fs5-00805,good,,pluvial,2026-03-06T11:12:00,['nycha'],False
BK - Saratoga Ave/Bainbridge St,BK-saratoga-ave-bainbridge-st-2tzmxo,2026-03-06T00:00:00.000,Saratoga Avenue,Brooklyn,11233,3037700,BK0302,40.682639,-73.917221,7.44,No,,mostly-driving-yeti,fs5-00736,good,2026-05-19T19:41:46.971Z,pluvial,2026-03-06T11:25:00,,False
BK - Dumont Ave/Hendrix St,BK-dumont-ave-hendrix-st-215zzc,2024-08-23T00:00:00.000,Dumont Avenue,Brooklyn,11207,3112400,BK0503,40.667195,-73.888024,11.42,No,,gently_exotic_bunny,fs5-00847,good,2026-03-09T17:08:50.483Z,pluvial,2024-08-23T03:38:00,,False
Q - 24th Rd/160th St,Q-160th-st-24th-rd-2t7t4o,2026-02-19T00:00:00.000,24th Road,Queens,11357,4105900,QN0704,40.775542,-73.803981,11.18,No,,exactly-harmless-slug,fs5-00862,good,2026-06-03T20:19:56.700Z,pluvial,2026-02-19T10:46:00,,False
BK - Oriental Blvd/Ocean Ave,BK-ocean-ave-oriental-blvd-2ub2lo,2026-03-12T00:00:00.000,Ocean Avenue,Brooklyn,11235,3062000,BK1503,40.57761,-73.94737,7.2,No,,friendly-closing-ram,fs5-00875,dead,2026-05-19T18:36:47.072Z,pluvial,2026-03-12T15:37:00,,True
BK - Paerdegat Ave N/Paerdegat 13th St,BK-seaview-ave-paerdegat-avenue-north-2vshw0,2026-04-10T00:00:00.000,Seaview Avenue,Brooklyn,11236,3099800,BK1803,40.62738,-73.90329,8.39,No,,implicitly-selected-quagga,fs5-00855,good,2026-04-13T17:31:36.674Z,pluvial,2026-04-10T12:00:00,['resident'],True
Q - Huxley St/Craft Ave,Q-craft-ave-huxley-st-3-2wiemc,2026-04-24T00:00:00.000,Huxley Street,Queens,11422,4066403,QN1307,40.64925,-73.73683,15.55,No,,healthily-azure-coyote,fs5-00781,good,2026-04-29T14:38:20.539Z,pluvial,2026-04-24T11:47:00,"['community', 'Sandra']",True
Q - 101st St/160th Ave,Q-160th-ave-101st-st-2vfj80,2026-04-03T00:00:00.000,101st Street,Queens,11414,4088400,QN1003,40.65829,-73.831946,4.76,No,,separately-vast-tapir,fs5-00826,good,2026-04-21T16:31:41.708Z,pluvial,2026-04-03T12:00:00,['resident'],True
SI - Boundary Ave/Hamden Ave,SI-hamden-ave-boundary-ave-2x8ck0,2026-05-08T00:00:00.000,Boundary Avenue,Staten Island,10306,5011203,SI0202,40.578706,-74.099937,3.5,Yes,,visually-endless-martin,fs5-00614,good,2026-05-11T19:39:58.905Z,coastal,2026-05-08T12:00:00,,True
SI - Richmond Terr/Port Ln,SI-port-ln-richmond-ter-2upluc,2026-03-20T00:00:00.000,Richmond Terrace,Staten Island,10302,5020701,SI0106,40.639775,-74.138844,1.81,No,,briskly_unsightly_tiger,fs5-00719,dead,2026-05-19T18:35:34.904Z,pluvial,2026-03-20T11:59:00,,True
Q - Roosevelt Ave/Prince St,Q-roosevelt-ave-prince-st-2t7spo,2026-02-19T00:00:00.000,Roosevelt Avenue,Queens,11354,4087100,QN0707,40.75875,-73.83275,6.5,No,,notably-touched-sailfish,fs5-00628,good,2026-06-03T20:17:27.389Z,pluvial,2026-02-19T10:37:00,,False
BK - Rochester Ave/ Bergen St,BK-saint-marks-ave-rochester-ave-2rrwxo,2026-01-22T00:00:00.000,Rochester Avenue,Brooklyn,11213,3030700,BK0802,40.675006,-73.92782,10.47,No,,unlikely-devoted-hagfish,fs5-00882,good,2026-04-13T14:24:37.751Z,pluvial,2026-01-22T10:13:00,,False
Q - 144th Ave/Springfield Blvd,Q-springfield-blvd-144th-ave-1-2whrzc,2026-04-24T00:00:00.000,144th Avenue,Queens,11413,4032800,QN1305,40.66706,-73.7571,11.42,No,,mawkishly-blue-sphinx,fs5-00630,good,2026-04-29T14:33:11.748Z,pluvial,2026-04-24T03:38:00,['NYPD'],False
Q - 61st St/Broadway,Q-broadway-61st-st-2yoddo,2026-06-05T00:00:00.000,Broadway,Queens,11377,4025900,QN0203,40.750772,-73.901193,8.82,No,,adequately-effective-muskrat,fs5-00493,good,2026-06-09T15:50:46.247Z,pluvial,2026-06-05T14:13:00,,False
BK - E Eighth St/Kermit Pl,BK-kermit-pl-e-8th-st-2yoh6c,2026-06-05T00:00:00.000,East 8th Street,Brooklyn,11218,3050401,BK0701,40.648592,-73.972787,3.27,No,,unexpectedly-drowsy-penguin,fs5-00410,good,,pluvial,2026-06-05T15:35:00,,False
SI - Boundary Ave/ Lincoln Ave,SI-lincoln-ave-boundary-ave-2yb5eo,2026-05-29T00:00:00.000,Lincoln Avenue,Staten Island,10306,5011203,SI0202,40.575945,-74.102224,9.13,Yes,,notably-causal-goshawk,fs5-00487,low_charge,2026-06-09T14:51:10.267Z,coastal,2026-05-29T10:52:00,['Ricardo'],True
BX - Washington Ave/E 175th Ave,BX-e-175th-st-washington-ave-2xykro,2026-05-22T00:00:00.000,Washington Avenue,Bronx,10457,2039500,BX0602,40.844875,-73.899189,6.93,No,,Wonderfully-adept-chihuahua,fs5-00691,hardware_issue,2026-06-10T20:54:48.410Z,pluvial,2026-05-22T15:55:00,,False
BK - Avenue L/E 24th St,BK-avenue-l-e-24th-st-2yoifc,2026-06-05T00:00:00.000,Avenue L,Brooklyn,11210,3075400,BK1403,40.62136,-73.951435,11.42,No,,delightfully-mischievous-alpaca,fs5-00467,good,,pluvial,2026-06-05T16:02:00,,False
BK - Rugby Rd/Cortelyou Rd,BK-cortelyou-rd-rugby-rd-2yohoo,2026-06-05T00:00:00.000,"Rugby Road, East 14th Street",Brooklyn,11226,3052000,BK1402,40.640725,-73.965356,7.09,No,,elegantly-rustic-fox,fs5-00464,good,,pluvial,2026-06-05T15:46:00,,False
Q - 48th St / 47th Ave,Q-48th-st-47th-ave-2k9p90,2025-08-29T00:00:00.000,47th Avenue,Queens,11377,4023502,QN0202,40.741009,-73.917106,2.8,No,,hard_gold_cobra,fs5-00485,good,2026-06-08T18:11:13.626Z,pluvial,2025-08-29T12:15:00,,False
Q - Laurel Hill/64th St,Q-64th-st-laurel-hill-blvd-2yodpc,2026-06-05T00:00:00.000,64th Street,Queens,11377,4024500,QN0203,40.73927,-73.901816,12.83,No,,aerobically-joyful-gecko,fs5-00461,good,2026-06-09T15:49:55.906Z,pluvial,2026-06-05T14:20:00,,False
BK - Terrace Pl/Sherman St,BK-sherman-st-terrace-pl-2yoguo,2026-06-05T00:00:00.000,Terrace Place,Brooklyn,11218,3017100,BK0701,40.655971,-73.974782,1.46,No,,whimsically-silver-otter,fs5-00453,good,,pluvial,2026-06-05T15:28:00,,False
BX - LaFontaine Ave/E 178th St,BX-lafontaine-ave-e-178th-st-2xyl8c,2026-05-22T00:00:00.000,Lafontaine Avenue,Bronx,10457,2037504,BX0602,40.847356,-73.893897,2.8,No,,healthily-aqua-trout,fs5-00676,dead,2026-06-10T20:55:31.819Z,pluvial,2026-05-22T16:05:00,,False
SI - Midland Ave/ Boundary Ave,SI-midland-ave-boundary-ave-2yb56c,2026-05-29T00:00:00.000,Midland Avenue,Staten Island,10306,5011203,SI0202,40.577184,-74.1009,10.12,Yes,,multiply-well-giraffe,fs5-00481,good,2026-06-02T19:06:03.663Z,coastal,2026-05-29T10:47:00,['Ricardo'],True
Q - Laurel Hill Blvd/96th Rd,Q-laurel-hill-blvd-56th-rd-2yod20,2026-06-05T00:00:00.000,Laurel Hill Boulevard,Queens,11378,4019902,QN0202,40.729312,-73.928562,7.24,No,,abruptly-hurried-koala,fs5-00489,good,2026-06-09T15:42:31.802Z,pluvial,2026-06-05T14:06:00,,True
Q - St James Ave/Queens Blvd,Q-saint-james-ave-51st-ave-2yodw0,2026-06-05T00:00:00.000,Saint James Avenue,Queens,11373,4048500,QN0401,40.738064,-73.881271,8.82,No,,happily-green-goose,fs5-00429,good,2026-06-09T15:51:34.208Z,pluvial,2026-06-05T14:24:00,,False
BK - 14th Ave/44th St,BK-44th-st-14th-ave-2yoi3o,2026-06-05T00:00:00.000,44th Street,Brooklyn,11219,3023200,BK1202,40.636493,-73.987123,10.59,No,,curiously-brisk-hedgehog,fs5-00475,good,,pluvial,2026-06-05T15:55:00,,False
SI - Eton Pl/Richmond Ave,SI-richmond-ave-eton-pl-2upm9c,2026-03-20T00:00:00.000,Eton Place,Staten Island,10314,5027301,SI0204,40.60424,-74.16083,10.47,No,,hastily_private_jerboa,fs5-00601,dead,2026-05-18T18:16:30.832Z,pluvial,2026-03-20T12:08:00,['parks'],False
BX - Louis Niñé Bl/Southern Bl,BX-louis-niñé-bl-southern-bl-0pmu80,2022-02-11T00:00:00.000,"Louis Nine Boulevard, Wilkins Avenue",Bronx,10459,2012300,BX0303,40.830719,-73.892104,7.17,No,,mainly_whole_slug,fs5-00750,good,2026-04-27T15:56:33.854Z,pluvial,2022-02-11T00:00:00,['community'],False
BK - Brighton 6th St/Ocean View Ave,BK-brighton-6th-st-ocean-view-ave-2ub2dc,2026-03-12T00:00:00.000,Brighton 6th Street,Brooklyn,11235,3036400,BK1303,40.57963,-73.96229,5.31,No,,seriously-true-mallard,fs5-00675,good,2026-03-16T20:35:07.749Z,pluvial,2026-03-12T15:32:00,,True
Q - Craft Ave/Huxley St,Q-craft-ave-huxley-st-2ol8k0,2025-11-21T00:00:00.000,Craft Avenue,Queens,11422,4066403,QN1307,40.64969,-73.73694,8.62,Yes,,loud_silver_turkey,fs3-00531,good,2026-04-28T15:01:51.608Z,coastal,2025-11-21T12:00:00,,True
BK - Mermaid Ave/W 27th St (2),BK-w-27th-st-mermaid-ave-1zbc0d,2025-08-21T00:00:00.000,Mermaid Avenue,Brooklyn,11224,3034200,BK1302,40.575733,-73.993449,9.25,No,,chilly_green_goat,fs3-00024,good,2026-04-20T14:33:52.400Z,pluvial,2025-08-21T10:55:00,,True
SI - Bay St/Baltic St,SI-baltic-st-bay-st-2upkto,2026-03-20T00:00:00.000,Bay Street,Staten Island,10301,5002100,SI0102,40.63135,-74.07639,11.77,No,,dearly_stupendous_puma,fs5-00792,good,2026-06-01T16:40:30.172Z,pluvial,2026-03-20T11:37:00,,True
BK - Euclid Ave/Blake Ave,BK-blake-ave-euclid-ave-2vshw0,2026-04-10T00:00:00.000,Euclid Avenue,Brooklyn,11208,3121000,BK0505,40.67143,-73.87107,10.08,No,,deadly-tight-asp,fs5-00863,good,2026-04-13T17:31:36.674Z,pluvial,2026-04-10T12:00:00,['nycha'],False
BK - Chestnut St/ Dinsmore Pl,BK-dinsmore-pl-chestnut-st-2vshw0,2026-04-10T00:00:00.000,Chestnut Street,Brooklyn,11208,3117800,BK0501,40.68155,-73.87512,11.97,No,,deeply-tender-bengal,fs5-00835,good,2026-04-13T17:31:36.674Z,pluvial,2026-04-10T12:00:00,['dep'],False
SI - Foch Ave/Lamport Blvd,SI-quintard-st-hurlbert-st-2w5qsc,2026-04-17T00:00:00.000,Quintard Street,Staten Island,10305,5006400,SI0201,40.59278,-74.07588,5.2,No,,fiscally-citrine-mouse,fs5-00720,good,2026-04-21T14:37:36.762Z,pluvial,2026-04-17T15:41:00,,True
SI - Doty Ave/Father Capodanno Blvd,SI-alex-cir-doty-ave-2x8bv0,2026-05-08T00:00:00.000,Doty Avenue,Staten Island,10305,5007400,SI0201,40.592826,-74.064515,11.3,Yes,,slowly-normal-swan,fs5-00683,good,2026-06-01T15:50:50.094Z,coastal,2026-05-08T11:45:00,,True
Q - Rockaway Bch Blvd/Bch 53rd St,Q-beach-52nd-st-rockaway-beach-blvd-2vfj80,2026-04-03T00:00:00.000,Rockaway Beach Boulevard,Queens,11691,4097204,QN1402,40.59285,-73.78276,5.12,No,,correctly-accurate-hyena,fs5-00852,good,2026-04-07T15:17:40.946Z,pluvial,2026-04-03T12:00:00,"['resident', 'elected_official']",True
Q - Hillside Ave/161st St,Q-hillside-ave-153rd-st-2wrm8o,2026-04-30T00:00:00.000,153rd Street,Queens,11432,4044602,QN1201,40.708238,-73.801095,9.49,No,,humbly-stirring-koi,fs5-00698,good,2026-05-04T15:25:54.932Z,pluvial,2026-04-30T12:00:00,['dep'],False
Q - Gothic Dr/167th St,Q-167th-st-gothic-dr-2wrlto,2026-04-30T00:00:00.000,Gothic Drive,Queens,11432,4045200,QN0805,40.713259,-73.797247,11.54,No,,nearly-uncommon-shark,fs5-00664,good,2026-05-04T15:27:06.112Z,pluvial,2026-04-30T12:00:00,['dep'],False
Q - Norton Dr/ Westbourne Ave,Q-norton-dr-westbourne-ave-1-2wif1c,2026-04-24T00:00:00.000,Norton Drive,Queens,11691,4100801,QN1401,40.608866,-73.768734,1.3,Yes,,happily-green-lion,fs5-00764,good,2026-04-29T14:39:41.313Z,coastal,2026-04-24T11:56:00,['resident'],True
BX - Rider Ave / E 140th St,BX-e-140th-st-rider-ave-2kkxk0,2025-09-04T00:00:00.000,Rider Avenue,Bronx,10451,2005100,BX0101,40.81355,-73.92663,9.96,No,,eminently-growing-werewolf,fs5-00899,good,2026-03-20T18:50:33.099Z,pluvial,2025-09-04T13:48:00,,True
SI - Barrett Ave/Forest Ave,SI-barrett-ave-forest-ave-2upm10,2026-03-20T00:00:00.000,Barrett Avenue,Staten Island,10302,5020100,SI0105,40.62593,-74.13664,11.65,No,,cruelly_sore_cat,fs5-00815,dead,2026-05-18T18:12:44.717Z,pluvial,2026-03-20T12:03:00,,False
Q - 150th St/94th Ave,Q-150th-st-94th-ave-2wrnb0,2026-04-29T00:00:00.000,150th Street,Queens,11435,4020800,QN1201,40.70048,-73.803557,8.9,No,,overly-useful-adder,fs5-00817,good,2026-05-04T16:02:06.212Z,pluvial,2026-04-29T11:33:00,['mocej'],False
Q - Vernon Blvd/40th Ave,Q-vernon-blvd-40th-ave-2uoync,2026-03-20T00:00:00.000,Vernon Boulevard,Queens,11101,4008500,QN0105,40.7582,-73.94525,8.98,No,,uniquely-fly-wolf,fs5-00623,good,2026-03-30T21:05:35.736Z,pluvial,2026-03-20T03:38:00,['nycha'],True
BK - Stillwell Ave/Neptune Ave,BK-stillwell-ave-neptune-ave-2ub1mo,2026-03-12T00:00:00.000,Stillwell Avenue,Brooklyn,11224,3034800,BK1302,40.57949,-73.98188,7.56,No,,early-positive-possum,fs5-00876,dead,2026-05-14T14:17:26.697Z,pluvial,2026-03-12T15:16:00,['MOCEJ'],True
BK - Ave V/ Stillwell Ave,BK-benson-ave-avenue-v-2w1qko,2026-04-15T00:00:00.000,Avenue V,Brooklyn,11214,3040200,BK1103,40.593658,-73.984299,6.26,No,,openly-fancy-flamingo,fs5-00625,good,2026-05-04T15:55:19.980Z,pluvial,2026-04-15T11:46:00,['nycha'],True
Q - Beach 59th St/Rockaway Beach Blvd,Q-beach-59th-st-rockaway-freeway-2vfj80,2026-04-03T00:00:00.000,Beach 59th Street,Queens,11692,4096400,QN1402,40.59229,-73.78904,16.97,No,,simply-integral-guinea,fs5-00778,good,2026-04-08T17:18:40.454Z,pluvial,2026-04-03T12:00:00,['parks'],True
Q - 160th St/Brinkerhoff Ave,Q-160th-st-110th-ave-2l96m0,2025-09-17T00:00:00.000,160th Street,Queens,11433,4026000,QN1202,40.692625,-73.791139,8.78,No,,modern_teal_warthog,fs5-00633,good,2026-05-04T14:23:14.435Z,pluvial,2025-09-17T16:06:00,,False
BX - Corlear Ave/W 234th St,BX-corlear-ave-w-234th-st-2cak60,2025-03-27T00:00:00.000,Corlear Avenue,Bronx,10463,2028700,BX0802,40.882861,-73.904812,13.31,No,,nicely-feasible-sheepdog,fs5-00799,good,2026-04-28T16:51:45.570Z,pluvial,2025-03-27T10:54:00,,False
BX - Story Ave/Thieriot Ave,BX-story-ave-leland-ave-2-2wv7yo,2026-05-01T00:00:00.000,Story Avenue,Bronx,10473,2004200,BX0902,40.823863,-73.861878,10.39,No,,funnily-mauve-ferret,fs5-00828,good,2026-05-04T16:36:02.452Z,pluvial,2026-05-01T09:52:00,['resident'],True
Q - W16th Rd/Cross Bay Blvd,Q-w-16th-rd-cross-bay-blvd-2wikyo,2026-04-24T00:00:00.000,West 16th Road,Queens,11693,4107201,QN1403,40.601897,-73.823293,3.74,Yes,,readily-joyful-octopus,fs5-00907,noisy,2026-06-03T19:40:47.670Z,coastal,2026-04-24T14:04:00,['resident'],True
BK - W 31st Ave/Neptune Ave,BK-w-31st-st-neptune-ave-2ub23c,2026-03-12T00:00:00.000,Neptune Avenue,Brooklyn,11224,3032800,BK1302,40.57736,-73.99795,8.78,No,,clearly-fine-basilisk,fs5-00660,dead,2026-05-19T18:33:55.772Z,pluvial,2026-03-12T15:26:00,,True
Q - Namesake Ave/Chandler St,Q-chandler-st-nameoke-ave-2v3evo,2026-03-27T00:00:00.000,"Nameoke Avenue, Nameoke Street",Queens,11691,4103201,QN1401,40.60849,-73.75592,5.67,No,,hungrily_pointless_mink,fs5-00891,noisy,2026-04-27T16:47:55.585Z,pluvial,2026-03-27T22:55:00,,True
Q - Beach 90th St/ Rockaway Fwy,Q-beach-90th-st-rockaway-freeway-2vfj80,2026-04-03T00:00:00.000,Beach 90th Street,Queens,11693,4094202,QN1402,40.58759,-73.81419,7.48,No,,severely-premium-stingray,fs5-00734,good,2026-04-06T17:40:33.539Z,pluvial,2026-04-03T12:00:00,"['resident', 'elected_official']",True
BK - Bath Ave/ Bay 46th St,BK-bath-ave-bay-46th-st-2w1qcc,2026-04-15T00:00:00.000,Bath Avenue,Brooklyn,11214,3030600,BK1301,40.591251,-73.985974,9.61,No,,reasonably-immune-leech,fs5-00669,good,2026-05-20T18:45:53.403Z,pluvial,2026-04-15T11:41:00,['nycha'],True
Q - Battery Rd/Chandler St,Q-chandler-st-battery-rd-2v3enc,2026-03-27T00:00:00.000,Battery Road,Queens,11691,4103201,QN1401,40.60958,-73.75585,9.72,Yes,,oddly_ratty_gorilla,fs5-00813,dead,2026-05-19T15:53:59.374Z,coastal,2026-03-27T22:50:00,['MOCEJ'],True
BX - City Island Bridge (Eastbound),BX-city-island-rd-city-island-ave-2wif80,2026-04-24T00:00:00.000,"City Island Road, Defoe Road",Bronx,10464,2050400,BX2891,40.85709,-73.79597,7.91,No,,mutually-obliging-octopus,fs5-00713,dead,2026-06-10T15:49:01.560Z,pluvial,2026-04-24T12:00:00,['City Island Rising'],True
SI- Richmond Ter/Lafayette Ave,SI-richmond-ter-lafayette-ave-2upl3o,2026-03-20T00:00:00.000,Richmond Terrace,Staten Island,10301,5008100,SI0101,40.64484,-74.09621,5.31,No,,quarrelsomely_vacuous_starfish,fs5-00795,good,2026-06-02T19:13:29.259Z,pluvial,2026-03-20T11:43:00,,False
SI - Maple Ave/Grove Ave,SI-maple-ave-grove-ave-2uplh0,2026-03-20T00:00:00.000,Maple Avenue,Staten Island,10302,5020702,SI0106,40.63881,-74.13426,7.09,No,,eagerly_militant_sloth,fs5-00777,dead,2026-05-14T14:29:51.079Z,pluvial,2026-03-20T11:51:00,,True
BX - Lincoln Ave / Bruckner Blvd,BX-lincoln-ave-e-132nd-st-2kkxa0,2025-09-04T00:00:00.000,Lincoln Avenue,Bronx,10454,2001901,BX0101,40.80671,-73.93029,11.54,No,,firstly-comic-phoenix,fs5-00766,good,2026-04-27T19:49:58.855Z,pluvial,2025-09-04T13:42:00,,True
BK - Bay Pkwy/Shore Pkwy,BK-bay-pkwy-shore-pkwy-2w1qrc,2026-04-15T00:00:00.000,Bay Parkway,Brooklyn,11214,3029400,BK1103,40.595796,-74.000051,9.84,No,,happily-intimate-salmon,fs5-00694,good,2026-05-04T15:58:32.536Z,pluvial,2026-04-15T11:50:00,,True
BK - Linden Blvd/Fountain Ave,BK-linden-blvd-fountain-ave-2vshw0,2026-04-10T00:00:00.000,Linden Boulevard,Brooklyn,11208,3111600,BK0503,40.66643,-73.87186,6.5,No,,vigorously-resolved-iguana,fs5-00901,good,2026-04-13T17:31:36.674Z,pluvial,2026-04-10T12:00:00,['dep'],True
BK - Loring Ave/Autumn Ave,BK-loring-ave-autumn-ave-2vshw0,2026-04-10T00:00:00.000,Loring Avenue,Brooklyn,11208,3121400,BK0505,40.66753,-73.86478,15.43,No,,adequately-legible-skink,fs5-00905,good,2026-05-22T13:49:19.107Z,pluvial,2026-04-10T12:00:00,['nycha'],True
SI - Bay St/Front St,SI-murray-hulbert-ave-bay-st-2upklc,2026-03-20T00:00:00.000,Bay Street,Staten Island,10305,5000600,SI0103,40.62065,-74.07101,1.22,No,,jaggedly_quaint_doe,fs5-00767,good,2026-03-30T21:02:32.986Z,pluvial,2026-03-20T11:32:00,,True
Q - Beach 140th St/Cronston Ave,Q-beach-140th-st-cronston-ave-1zbc0d,2024-07-18T00:00:00.000,Beach 140th Street,Queens,11694,4092200,QN1403,40.57655,-73.85923,5.24,Yes,,widely-tidy-narwhal,fs5-00608,good,2026-04-08T17:32:02.396Z,coastal,2024-07-18T03:38:37,"['resident', 'elected_official']",True
BK - Shore Pkwy/W Sixth St,BK-shore-pkwy-shell-rd-2ub1wo,2026-03-12T00:00:00.000,"Shore Parkway, Leif Ericson Drive, Shore Parkway South",Brooklyn,11223,3035400,BK1302,40.58253,-73.97404,9.84,No,,reliably-darling-koala,fs5-00716,dead,2026-05-19T18:34:11.064Z,pluvial,2026-03-12T15:22:00,,True
BK - W 12th St/Ave X,BK-w-12th-st-avenue-x-2w1q40,2026-04-15T00:00:00.000,West 12th Street,Brooklyn,11223,3038200,BK1301,40.589353,-73.981968,8.43,No,,positively-blessed-mosquito,fs5-00686,unknown,2026-06-01T18:42:22.302Z,pluvial,2026-04-15T11:36:00,,True
BK - Ridgewood Ave/Autumn Ave,BK-ridgewood-ave-autumn-ave-2vshw0,2026-04-10T00:00:00.000,Ridgewood Avenue,Brooklyn,11208,3118201,BK0501,40.68602,-73.87046,3.82,No,,infinitely-working-urchin,fs5-00872,good,2026-04-13T17:31:36.674Z,pluvial,2026-04-10T12:00:00,['resident'],False
Q - Beach 137th St/Newport Ave,Q-newport-ave-beach-137th-st-2-2wii00,2026-04-24T00:00:00.000,Beach 137th Street,Queens,11694,4092200,QN1403,40.575677,-73.855784,8.31,No,,Sadly-blue-beetle,fs5-00672,good,2026-05-04T16:37:41.687Z,pluvial,2026-04-24T13:00:00,['resident'],True
BX - Rosedale Ave/Lacombe Ave,BX-rosedale-ave-lacombe-ave-1-2wv870,2026-05-01T00:00:00.000,Rosedale Avenue,Bronx,10473,2002001,BX0902,40.814621,-73.865291,9.96,No,,eccentrically-plum-hare,fs5-00613,good,2026-05-05T16:09:56.865Z,pluvial,2026-05-01T09:57:00,['resident'],True
Q - Beach 64th St/De Costa Ave,Q-beach-64th-st-de-costa-ave-2vfj80,2026-04-03T00:00:00.000,Beach 64th Street,Queens,11692,4096400,QN1402,40.59803,-73.79382,6.18,No,,notably-informed-seagull,fs5-00648,good,2026-04-06T15:20:32.812Z,pluvial,2026-04-03T12:00:00,"['resident', 'elected_official']",True
Q - Beach Chn Dr/ Beach 59th St,Q-beach-59th-st-beach-channel-dr-1zbc0d,2026-04-03T00:00:00.000,Beach Channel Drive,Queens,11692,4096400,QN1402,40.59408,-73.78921,0.59,No,,mistakenly-flexible-chicken,fs5-00721,good,2026-04-06T15:56:06.306Z,pluvial,2026-04-03T12:00:00,"['community', 'elected_official']",True
BK - Euclid Ave/Sutter Ave,BK-euclid-ave-sutter-ave-2vshw0,2026-04-10T00:00:00.000,Euclid Avenue,Brooklyn,11208,3119600,BK0505,40.67297,-73.87137,10.35,No,,daily-holy-swan,fs5-00874,good,2026-04-13T17:31:36.674Z,pluvial,2026-04-10T12:00:00,['nycha'],False
Q - Gouveneur Ave/Beach 72nd St,Q-beach-72nd-st-gouverneur-ave-1zbc0d,2026-04-03T00:00:00.000,"Gouverneur Avenue, Failing Avenue",Queens,11692,4095400,QN1402,40.59335,-73.80083,7.09,No,,inherently-hardy-dane,fs5-00627,good,2026-04-06T15:39:20.219Z,pluvial,2026-04-03T12:00:00,"['resident', 'elected_official']",True
BX - Soundview Ave/ Noble Ave,BX-soundview-ave-noble-ave-1-2wv7x0,2026-05-01T00:00:00.000,Soundview Avenue,Bronx,10473,2004200,BX0902,40.823391,-73.868157,6.38,No,,electrically-composed-marmot,fs5-00707,good,2026-05-04T16:35:29.755Z,pluvial,2026-05-01T09:51:00,['resident'],True
Q - 44th Ave/111th St,Q-44th-ave-111th-st-2t7sfo,2026-02-19T00:00:00.000,111th Street,Queens,11368,4039901,QN0402,40.749077,-73.854391,8.19,No,,unduly-current-coyote,fs5-00619,good,2026-06-03T20:15:54.230Z,pluvial,2026-02-19T10:31:00,,False
Q - Norton Ave/Beach 45th St,Q-norton-ave-beach-45th-st-2vfj80,2026-04-03T00:00:00.000,Norton Avenue,Queens,11691,4097206,QN1402,40.59832,-73.77696,8.03,No,,initially-literate-raven,fs5-00800,good,2026-04-07T15:16:37.234Z,pluvial,2026-04-03T12:00:00,"['resident', 'elected_official']",True
Q - Redfern Ave/Hassock St,Q-nameoke-ave-redfern-ave-2v3ebo,2026-03-27T00:00:00.000,Redfern Avenue,Queens,11691,4103201,QN1401,40.6093,-73.75126,6.26,Yes,,greedily_unhealthy_sheep,fs5-00678,dead,2026-05-19T18:34:23.061Z,coastal,2026-03-27T22:43:00,,True
BX - Fairfield Ave/ W231st St,BX-w-231st-st-fairfield-ave-2wif80,2026-04-24T00:00:00.000,Fairfield Avenue,Bronx,10463,2029700,BX0803,40.88338,-73.91427,3.35,No,,formerly-brave-marten,fs5-00762,good,2026-05-27T19:15:53.069Z,pluvial,2026-04-24T12:00:00,['dep'],False
BX - Zerega Ave/Seward Ave,BX-seward-ave-zerega-ave-4-2wv8do,2026-05-01T00:00:00.000,Seward Avenue,Bronx,10473,2009000,BX0903,40.82189,-73.84253,11.5,No,,ecstatically-elastic-goose,fs5-00662,good,2026-05-04T16:36:53.578Z,pluvial,2026-05-01T10:01:00,['resident'],True
SI - Nugent Ave/Quintard St,SI-nugent-ave-quintard-st-2x8cbo,2026-05-08T00:00:00.000,Nugent Avenue,Staten Island,10305,5007002,SI0201,40.590482,-74.080468,11.54,Yes,,verbally-ultimate-elf,fs5-00740,good,2026-05-19T19:56:25.031Z,coastal,2026-05-08T11:55:00,,True
BX - E178th St/Daly Ave,BX-e-178th-st-daly-ave-3-2xylqo,2026-05-22T00:00:00.000,East 178th Street,Bronx,10460,2036300,BX0601,40.842757,-73.883244,9.92,No,,suddenly-fit-gobbler,fs5-00642,good,2026-06-09T20:50:52.640Z,pluvial,2026-05-22T16:16:00,['resident'],False
BX - Crotona Park N/Clinton Ave,BX-clinton-ave-crotona-park-north-1-2xylic,2026-05-22T00:00:00.000,Crotona Park North,Bronx,10457,2016300,BX0391,40.84163,-73.893181,6.73,No,,sharply-daring-swift,fs5-00746,dead,2026-06-10T20:56:12.478Z,pluvial,2026-05-22T16:11:00,['resident'],False
Q - 108th Ave/159th St,Q-108th-ave-159th-st-1jtss0,2023-09-21T00:00:00.000,108th Avenue,Queens,11433,4025402,QN1202,40.695403,-73.794018,6.73,No,,weekly_exact_condor,fs5-00739,noisy,2026-05-20T16:24:22.830Z,pluvial,2023-09-21T00:00:00,[],False
BK - Eldert St/Evergreen Ave,BK-evergreen-ave-eldert-st-1-2xkvhc,2026-05-15T00:00:00.000,Eldert Street,Brooklyn,11207,3041300,BK0402,40.688204,-73.911541,6.81,No,,pristinely-derelict-rabbit,fs5-00756,good,2026-05-19T20:02:20.404Z,pluvial,2026-05-15T06:20:00,"['dep', 'CM Nurse', 'resident']",False
SI - Sand Ln/Sunnymeade Village,SI-sunnymeade-village-sand-ln-2x8c3c,2026-05-08T00:00:00.000,Sand Lane,Staten Island,10305,5007400,SI0201,40.590907,-74.067101,11.3,Yes,,previously-bursting-bird,fs5-00651,good,2026-05-19T19:58:40.039Z,coastal,2026-05-08T11:50:00,,True
BK - Marcy Ave/Hopkins St,BK-marcy-ave-hopkins-st-278inc,2024-12-19T00:00:00.000,Marcy Avenue,Brooklyn,11206,3025500,BK0301,40.699262,-73.949902,7.91,No,,presumably-suited-lobster,fs5-00433,good,2026-05-20T16:41:56.342Z,pluvial,2024-12-19T03:38:00,,True
BK - Main St/Plymouth St,BK-main-st-water-st-1-2xljvo,2026-05-15T00:00:00.000,Main Street,Brooklyn,11201,3002100,BK0202,40.703366,-73.990734,14.41,No,,Abruptly-delayed-doormouse,fs5-00754,good,2026-05-19T20:08:05.208Z,pluvial,2026-05-15T15:07:00,['resident'],True
BK - Knickerbocker Ave/Palmetto St,BK-knickerbocker-ave-palmetto-st-1mpi40,2023-11-16T00:00:00.000,Knickerbocker Avenue,Brooklyn,11221,3043500,BK0402,40.69629,-73.91379,22.05,No,,generally_enormous_panda,fs3-00383,good,2026-05-26T18:28:28.331Z,pluvial,2023-11-16T00:00:00,['dep'],False
BX - Bronx St/E Tremont Ave,BX-bronx-st-e-tremont-ave-1-2xylz0,2026-05-22T00:00:00.000,East Tremont Avenue,Bronx,10460,2036100,BX0601,40.840159,-73.878742,4.69,No,,extremely-glad-lion,fs5-00645,good,2026-05-26T18:30:54.475Z,pluvial,2026-05-22T16:21:00,['resident'],True
BK - Central Ave/Woodbine St,BK-central-ave-woodbine-st-3-2xkv7c,2026-05-15T00:00:00.000,Central Avenue,Brooklyn,11221,3041500,BK0402,40.688204,-73.911541,8.27,No,,abruptly-malicious-stoat,fs5-00885,good,2026-05-19T20:04:41.170Z,pluvial,2026-05-15T06:14:00,"['dep', 'CM Nurse']",False
BK - Lee Ave/Middleton St,BK-lee-ave-middleton-st-19qok0,2023-03-09T00:00:00.000,Lee Avenue,Brooklyn,11206,3053101,BK0103,40.700775,-73.954629,10.08,No,,blue_eyed_tiger,fs5-00745,hardware_issue,2026-05-27T19:32:54.806Z,pluvial,2023-03-09T00:00:00,[],True
BK - Junius St/Sutter Ave,BK-junius-st-sutter-ave-1dnf80,2023-05-24T00:00:00.000,Junius Street,Brooklyn,11212,3090800,BK1602,40.668742,-73.902658,13.43,No,,lovely_helped_lamb,fs-00084,good,2025-08-15T16:09:02.586Z,pluvial,2023-05-24T00:00:00,[],False
BX - Metropolitan Ave/Linden Dr,BX-metropolitan-ave-linden-dr-2lnmzc,2025-09-25T00:00:00.000,Metropolitan Avenue,Bronx,10462,2021001,BX0904,40.840601,-73.855459,8.78,No,,lovely_indigo_panther,fs5-00714,good,2026-06-01T16:27:54.667Z,pluvial,2025-09-25T11:26:00,,False
M - E 122nd St/3rd,M-e-122nd-st-3rd-1yjns0,2022-11-13T00:00:00.000,3rd Avenue,Manhattan,10035,1019600,MN1102,40.801601,-73.937485,15.39,No,,vastly_main_lion,fs5-00744,low_charge,2026-05-27T19:08:28.509Z,pluvial,2022-11-13T03:38:37,['dep'],True
BX - Waters Pl/ Fink Ave,BX-roberts-ave-waters-pl-2921jc,2025-01-23T00:00:00.000,Waters Place,Bronx,10461,2028400,BX1161,40.843944,-73.839728,8.82,No,,honestly-unified-imp,fs3-00530,good,2025-10-27T18:02:58.025Z,pluvial,2025-01-23T12:50:00,"['dep', 'MTA']",True
BK - Dean St/Utica Ave,BK-dean-st-utica-ave-215zzc,2024-08-23T00:00:00.000,Utica Avenue,Brooklyn,11233,3030700,BK0802,40.675495,-73.930394,5.28,No,,jolly_civil_bat,fs3-00328,good,2025-09-15T14:18:54.188Z,pluvial,2024-08-23T03:38:00,,False
SI - Targee St/Waverly Pl,SI-waverly-pl-targee-st-2agano,2025-02-19T00:00:00.000,Targee Street,Staten Island,10304,5002900,SI0102,40.618275,-74.084857,11.1,No,,probably-guided-quail,fs5-00609,good,2026-04-19T19:37:06.238Z,pluvial,2025-02-19T16:07:00,,False
BX - E 175th St/Webster Ave,BX-e-175th-st-webster-ave-2lnmh0,2025-09-25T00:00:00.000,East 175th Street,Bronx,10457,2023100,BX0502,40.84574,-73.90224,7.83,No,,hungry_navy_grasshopper,fs5-00783,good,2026-03-30T20:53:47.822Z,pluvial,2025-09-25T12:00:00,,False
BK - Jefferson Ave/ Marcus Garvey Blvd,BK-jefferson-ave-marcus-garvey-blvd-2mfc90,2025-10-10T00:00:00.000,Jefferson Avenue,Brooklyn,11221,3027500,BK0302,40.68469,-73.93822,9.41,No,,precisely-joint-dragon,fs5-00652,good,2026-05-18T19:41:29.258Z,pluvial,2025-10-10T10:27:00,,False
Q - Mowbray Dr/Austin St,Q-mowbray-dr-austin-st-21vxbc,2024-09-06T00:00:00.000,Austin Street,Queens,11415,4077500,QN0901,40.709929,-73.83033,6.22,No,,really-cute-lemur,fs3-00452,good,2025-09-08T15:56:32.712Z,pluvial,2024-09-06T03:38:00,,False
BX - Harrod Pl/Morrison Ave,BX-morrison-ave-harrod-pl-1vpqc0,2024-05-09T00:00:00.000,Morrison Avenue,Bronx,10472,2004800,BX0901,40.828874,-73.874293,3.35,No,,unduly_mature_bunny,fs5-00824,noisy,2026-06-10T21:11:31.900Z,pluvial,2024-05-09T00:00:00,['community'],True
BX - E 208th St/Bainbridge Ave,BX-e-208th-st-bainbridge-ave-2calqo,2025-03-27T00:00:00.000,Bainbridge Avenue,Bronx,10467,2041900,BX0703,40.87781,-73.87977,15.51,No,,separately-many-mole,fs3-00332,dead,2026-06-10T18:18:21.929Z,pluvial,2025-03-27T11:28:00,,False
SI - Jewett Ave/Castleton Ave,SI-jewett-ave-castleton-ave-0xwr80,2022-07-22T00:00:00.000,Jewett Avenue,Staten Island,10302,5013302,SI0106,40.633346,-74.129583,9.25,No,,useless_crimson_rook,fs3-00199,signal,2026-05-28T19:39:00.179Z,pluvial,2022-07-22T00:00:00,[],True
Q - Hendrickson Pl/166th St,Q-hendrickson-pl-166th-st-1x5fg0,2024-06-06T00:00:00.000,Hendrickson Place,Queens,11433,4025402,QN1202,40.698449,-73.788862,11.73,No,,miserly_ivory_oryx,fs3-00016,good,2026-01-09T18:29:41.379Z,pluvial,2024-06-06T00:00:00,[],False
BK - 19th Ave/77th St,BK-19th-ave-77th-st-20cdbc,2024-08-07T00:00:00.000,19th Avenue,Brooklyn,11214,3027400,BK1101,40.610849,-73.995451,32.68,No,,loudly_upward_eel,fs3-00165,signal,2026-03-19T17:29:49.117Z,pluvial,2024-08-07T03:38:00,['NYCEM'],False
BX - Home St/Intervale Av,BX-home-st-intervale-av-0pmrg0,2022-02-11T00:00:00.000,Intervale Avenue,Bronx,10459,2012500,BX0303,40.828263,-73.895037,18.74,No,,daily_mutual_gnat,fs3-00262,non-ota,2025-08-28T19:29:34.747Z,pluvial,2022-02-11T00:00:00,['community'],False
Q - 188th St/ 58th Ave,Q-188th-st-58th-ave-1zbc0d,2025-09-11T00:00:00.000,58th Avenue,Queens,11365,4141700,QN1101,40.742676,-73.787458,5.67,No,,awfully-feasible-swan,fs5-00413,good,2026-01-09T18:14:54.177Z,pluvial,2025-09-11T12:00:00,,False
BX - Duncan St/Paulding Ave,BX-paulding-ave-duncan-st-2caow0,2025-03-27T00:00:00.000,Duncan Street,Bronx,10469,2037000,BX1201,40.872997,-73.858546,16.34,No,,truly-moved-eft,fs5-00742,good,2026-04-27T15:34:46.184Z,pluvial,2025-03-27T12:36:00,,False
Q - 30th Pl/ 47th Ave,Q-30th-pl-47th-ave-1x5co0,2024-06-06T00:00:00.000,30th Place,Queens,11101,4019902,QN0202,40.74307,-73.936655,8.03,No,,gnarly_clever_coyote,fs5-00456,good,2026-06-08T18:03:43.381Z,pluvial,2024-06-06T00:00:00,[],True
Q - 160th St/107th Ave,Q-160th-st-107th-ave-1jtyc0,2023-09-21T00:00:00.000,160th Street,Queens,11433,4025402,QN1202,40.69737,-73.794579,9.49,No,,mildly_loving_doe,fs5-00858,good,2026-03-02T19:29:50.652Z,pluvial,2023-09-21T00:00:00,[],False
Q - Russell St 1,Q-russell-st-1-07zqc0,2021-03-05T00:00:00.000,Russell Street,Queens,11414,4088400,QN1003,40.654312,-73.831566,6.1,Yes,,duly_pro_vervet,fs3-00379,dead,2026-05-26T18:25:41.848Z,coastal,2021-03-05T00:00:00,['community'],True
Q - 37th Rd/Woodside Ave,Q-woodside-ave-37th-rd-1veb80,2024-05-03T00:00:00.000,37th Road,Queens,11377,4025500,QN0203,40.751047,-73.909431,12.36,No,,kindly_loving_pug,fs3-00294,good,2025-08-28T19:42:04.817Z,pluvial,2024-05-03T00:00:00,['dep'],False
BK - Linwood St/Wortman Ave,BK-linwood-st-wortman-ave-215zzc,2024-08-23T00:00:00.000,Wortman Avenue,Brooklyn,11208,3107800,BK0503,40.660735,-73.876004,11.26,No,,early_mature_grub,fs3-00377,good,2025-11-18T16:37:01.290Z,pluvial,2024-08-23T03:38:00,,True
BK - Clarendon Rd/E 56th St,BK-clarendon-rd-e-56th-st-20rvvo,2024-08-15T00:00:00.000,East 56th Street,Brooklyn,11203,3094600,BK1703,40.645056,-73.923793,12.01,No,,sadly_moving_bengal,fs3-00161,good,2025-08-15T16:09:02.586Z,pluvial,2024-08-15T12:43:00,['community'],False
BK - Henry St/Mill St,BK-henry-st-mill-st-0pzq40,2022-02-18T00:00:00.000,Henry Street,Brooklyn,11231,3008500,BK0601,40.675734,-74.003396,7.8,No,,jolly_tender_squid,,needs_sensor,2026-04-22T18:06:35.126Z,pluvial,2022-02-18T00:00:00,['community'],True
M - E 117th St/1st Ave,M-e-117th-st-1st-ave-1yji80,2024-07-03T00:00:00.000,1st Avenue,Manhattan,10035,1018800,MN1102,40.796533,-73.935178,13.82,No,,mildly_ace_husky,fs3-00241,good,2026-04-09T16:47:02.408Z,pluvial,2024-07-03T15:30:00,['dep'],True
Q - 44th Dr / Jackson Ave,Q-44th-dr-jackson-ave-2k9oqo,2025-08-29T00:00:00.000,44th Drive,Queens,11101,4001902,QN0201,40.74718,-73.94253,2.4,No,,empty_lime_octopus,fs5-00848,good,2026-03-16T16:26:13.752Z,pluvial,2025-08-29T12:04:00,,True
BK - Logan St/Etna St,BK-logan-st-etna-st-2bkxrc,2025-03-13T00:00:00.000,Etna Street,Brooklyn,11208,3117601,BK0501,40.685682,-73.878689,8.03,No,,violently-emerging-oyster,fs3-00303,noisy,2026-05-04T16:17:08.682Z,pluvial,2025-03-13T14:50:00,,False
Q - Saint James Ave/Broadway,Q-saint-james-ave-broadway-214qw0,2024-08-22T00:00:00.000,Broadway,Queens,11373,4047100,QN0401,40.740064,-73.878522,11.54,No,,wildly_busy_hippo,fs3-00445,good,2026-01-09T18:33:00.208Z,pluvial,2024-08-22T11:24:00,['dep'],False
Q - 1st St/104th St,Q-1st-st-104th-st-1a5t00,2023-03-17T00:00:00.000,1st Street,Queens,11414,4088400,QN1003,40.655908,-73.828642,11.89,Yes,,big_pink_elephant,fs-00058,good,2026-06-03T20:48:20.701Z,coastal,2023-03-17T00:00:00,[],True
BK - Flatlands Ave/E 80th St,BK-flatlands-ave-e-80th-st-1umm00,2024-04-18T00:00:00.000,Flatlands Avenue,Brooklyn,11236,3095000,BK1803,40.635483,-73.913574,8.5,No,,mostly_sunny_weasel,fs3-00372,signal,2026-05-27T19:12:44.031Z,pluvial,2024-04-18T00:00:00,['community '],True
BK - 4th Av/Garfield Pl,BK-4th-av-garfield-pl-0erv80,2021-07-15T00:00:00.000,4th Avenue,Brooklyn,11215,3013300,BK0602,40.675855,-73.983944,11.26,No,,daily_gentle_beetle,fs-00002,good,2026-01-13T17:42:23.534Z,pluvial,2021-07-15T00:00:00,['internal'],False
BX - Wilson Ave/E 214th St,BX-wilson-ave-e-214th-st-2cap4c,2025-03-27T00:00:00.000,Wilson Avenue,Bronx,10469,2038600,BX1202,40.87613,-73.85103,7.83,No,,centrally-in-worm,fs3-00339,good,2026-01-09T18:06:22.822Z,pluvial,2025-03-27T12:41:00,,False
M - Dyckman St/Payson Ave,M-dyckman-st-payson-ave-1yht40,2024-07-02T00:00:00.000,"Dyckman Street, West 200th Street",Manhattan,10034,1028700,MN1202,40.866835,-73.928972,17.28,No,,really_brief_stork,fs3-00310,good,2026-01-13T17:22:12.076Z,pluvial,2024-07-02T15:05:00,['community'],True
BK - Atlantic Ave/ Fort Greene Pl,BK-fort-greene-pl-atlantic-ave-2rrw0c,2026-01-22T00:00:00.000,"Fort Greene Place, 5th Avenue",Brooklyn,11217,3003500,BK0203,40.68357,-73.97563,6.61,No,,forcibly-excited-jennet,fs5-00659,dead,2026-06-01T16:29:29.992Z,pluvial,2026-01-22T09:53:00,,False
BX - Webster Ave/Mosholu Pkwy S,BX-e-mosholu-parkway-south-webster-ave-2calz0,2025-03-27T00:00:00.000,East Mosholu Parkway South,Bronx,10458,2041500,BX0702,40.86869,-73.88155,11.61,No,,externally-cuddly-termite,fs5-00842,dead,2026-06-10T19:22:14.798Z,pluvial,2025-03-27T11:33:00,,False
BK - Ditmas Ave/Westminster Rd,BK-ditmas-ave-westminster-rd-1lbfc0,2023-10-20T00:00:00.000,"Westminster Road, East 12th Street",Brooklyn,11218,3052600,BK1402,40.63563,-73.96627,12.36,No,,solely_on_tahr,fs-00108,good,2026-06-03T20:55:49.092Z,pluvial,2023-10-20T00:00:00,[],False
SI - Myrtle Ave / N Burgher Ave,SI-n-burgher-ave-myrtle-ave-2agbmo,2025-02-19T00:00:00.000,Myrtle Avenue,Staten Island,10310,5010500,SI0104,40.630218,-74.113455,9.13,No,,morally-outgoing-monarch,fs3-00300,dead,2026-05-21T14:29:57.072Z,pluvial,2025-02-19T16:28:00,,False
BX - Edgewater Rd/Seneca Ave,BX-edgewater-rd-seneca-ave-214yhc,2024-08-22T00:00:00.000,Edgewater Road,Bronx,10474,2011502,BX0201,40.819327,-73.88379,10.55,No,,yearly-hardy-sloth,fs3-00157,good,2026-06-03T20:34:50.472Z,pluvial,2024-08-22T14:08:00,['dep'],True
BK - Humboldt St / Norman Ave,BK-humboldt-st-norman-ave-2k9nco,2025-08-29T00:00:00.000,Humboldt Street,Brooklyn,11222,3057300,BK0101,40.727447,-73.945762,7.83,No,,spotty_white_donkey,fs5-00430,dead,2026-04-22T14:56:54.793Z,pluvial,2025-08-29T11:34:00,,True
M - Nagle Ave/Dyckman St,M-nagle-ave-dyckman-st-1yhf80,2024-07-02T00:00:00.000,"Dyckman Street, West 200th Street",Manhattan,10040,1028500,MN1202,40.861746,-73.924982,12.83,No,,lively_live_hawk,fs5-00679,good,2026-03-28T02:23:33.178Z,pluvial,2024-07-02T15:07:00,['community'],True
Q - 71st Ave/75th St,Q-71st-ave-75th-st-1vcro0,2024-05-02T00:00:00.000,75th Street,Queens,11379,4061900,QN0504,40.707006,-73.875512,5.98,No,,rarely_intent_donkey,fs3-00258,dead,2026-03-18T14:02:42.154Z,pluvial,2024-05-02T00:00:00,['dep'],False
Q - 164 Pl/109th Ave,Q-164-pl-109th-ave-1jtn80,2023-09-21T00:00:00.000,164th Place,Queens,11433,4025800,QN1202,40.695632,-73.788393,24.25,No,,gladly_pretty_magpie,fs5-00711,dead,2026-05-19T18:34:36.461Z,pluvial,2023-09-21T00:00:00,['dep'],False
Q - 51st Ave/Jacobus St,Q-51st-ave-jacobus-st-20q7k0,2024-08-14T00:00:00.000,51st Avenue,Queens,11373,4047900,QN0401,40.736665,-73.887746,10.71,No,,slowly_meet_poodle,fs3-00367,good,2026-03-18T15:04:10.261Z,pluvial,2024-08-14T15:00:00,['dep'],False
SI - Haven Ave/ Adam Ave,SI-haven-ave-adam-ave-1qijg0,2024-01-29T00:00:00.000,Adams Avenue,Staten Island,10306,5011201,SI0202,40.579297,-74.098201,7.44,No,,truly_set_thrush,fs3-00170,good,2026-06-03T20:37:58.989Z,pluvial,2024-01-29T00:00:00,['dep'],True
M - W 29th St/12th Ave,M-12th-ave-w-29th-st-2nvb9o,2025-11-07T00:00:00.000,West 29th Street,Manhattan,10018,1009902,MN0401,40.753704,-74.006925,6.61,No,,grumpy_white_newt,fs5-00712,good,2026-05-20T18:35:59.751Z,pluvial,2025-11-07T12:01:00,,True
SI - Catherine Ct/Jewett Ave,SI-catherine-ct-jewett-ave-1wu5w0,2024-05-31T00:00:00.000,Jewett Avenue,Staten Island,10302,5013302,SI0106,40.631311,-74.130524,29.53,No,,overly_game_cougar,fs3-00541,good,2026-01-09T18:34:26.888Z,pluvial,2024-05-31T00:00:00,[],True
Q - 31st Ave/ 32nd St,Q-31st-ave-32nd-st-2ausk0,2025-02-27T00:00:00.000,31st Avenue,Queens,11106,4006100,QN0103,40.763964,-73.922841,8.27,No,,sincerely-kind-bass,fs3-00304,signal,2026-05-28T18:12:32.403Z,pluvial,2025-02-27T12:00:00,['dep'],False
BX - 1st St/Avenue A,BX-1st-st-avenue-a-1zby90,2024-07-18T00:00:00.000,Avenue A,Bronx,10474,2011702,BX0201,40.812851,-73.881043,3.62,No,,wholly_useful_shrew,fs3-00261,good,2026-01-09T17:57:15.677Z,pluvial,2024-07-18T11:39:00,['community'],True
M - Broadway/W 157th St,M-w-157th-ave-broadway-1vr9w0,2024-05-10T00:00:00.000,West 157th Street,Manhattan,10032,1024100,MN1201,40.834239,-73.945121,11.14,No,,truly_chief_deer,fs5-00856,needs_ota_update,2026-05-23T20:26:33.758Z,pluvial,2024-05-10T00:00:00,['dep'],False
Q - Beach Channel Dr/Beach 48th St,Q-beach-channel-dr-beach-48th-st-1zdub0,2024-07-19T00:00:00.000,Beach 48th Street,Queens,11691,4097204,QN1402,40.595001,-73.779035,7.83,Yes,,really_usable_ghoul,fs3-00277,good,2026-01-09T18:26:00.687Z,coastal,2024-07-19T12:09:00,['community'],True
Q - Beach Channel Dr/Beach 38th St,Q-beach-channel-dr-beach-38th-st-1zduho,2024-07-19T00:00:00.000,Beach 38th Street,Queens,11691,4099200,QN1401,40.595733,-73.770498,6.5,Yes,,humbly_ruling_elk,fs5-00880,good,2026-04-06T17:52:14.958Z,coastal,2024-07-19T12:13:00,['community'],True
BK -  Farragut Rd/ Rockaway Pkwy,BK-farragut-rd-rockaway-pkwy-1umj80,2024-04-18T00:00:00.000,Farragut Road,Brooklyn,11236,3097000,BK1803,40.646557,-73.904204,16.57,No,,poorly_amazed_muskox,fs3-00149,good,2025-10-09T20:17:06.977Z,pluvial,2024-04-18T00:00:00,['community '],False
Q - 231st St/ 148th Ave,Q-231st-st-148th-ave-1edkw0,2023-06-07T00:00:00.000,148th Avenue,Queens,11413,4069400,QN1306,40.655678,-73.751291,6.73,Yes,,deadly_trusty_troll,fs5-00692,good,2026-03-28T02:39:26.422Z,coastal,2023-06-07T00:00:00,['dep'],True
BK - Jewel St/ Greenpoint Ave,BK-newel-st-greenpoint-ave-2k9o50,2025-08-29T00:00:00.000,Jewel Street,Brooklyn,11222,3057902,BK0101,40.73051,-73.94872,11.69,No,,tricky_indigo_newt,fs5-00770,dead,2026-06-01T16:31:48.561Z,pluvial,2025-08-29T11:51:00,,True
Q - 83rd Pl/Penelope Ave,Q-penelope-ave-83rd-pl-1vcug0,2024-05-02T00:00:00.000,83rd Place,Queens,11379,4066301,QN0504,40.721347,-73.870753,5.08,No,,vastly_close_bobcat,fs3-00358,dead,2026-01-09T18:22:02.075Z,pluvial,2024-05-02T00:00:00,['dep'],False
BK - Farragut Rd/Rogers Ave,BK-farragut-rd-rogers-ave-20rv00,2024-08-15T00:00:00.000,Farragut Road,Brooklyn,11210,3078801,BK1401,40.636159,-73.950699,2.64,No,,hugely_divine_kid,fs3-00115,good,2026-01-09T17:42:49.628Z,pluvial,2024-08-15T12:24:00,['community'],False
Q - 30th Ave/89th St,Q-30th-ave-89th-st-1pmzc0,2024-01-12T00:00:00.000,30th Avenue,Queens,11369,4033900,QN0301,40.761834,-73.879978,19.33,No,,closely_muddy_scurvy,fs3-00340,good,2026-06-03T20:32:52.891Z,pluvial,2024-01-12T00:00:00,['dep'],False
SI - Laredo Ave/Pompey Ave,SI-pompey-ave-laredo-ave-2msi00,2025-10-17T00:00:00.000,Laredo Avenue,Staten Island,10312,5017011,SI0302,40.549207,-74.172037,8.9,No,,friendly-inviting-deer,fs5-00624,noisy,2026-06-09T15:48:42.143Z,pluvial,2025-10-17T13:00:00,,True
BK - Avenue P/E 9th St,BK-avenue-p-e-9th-st-20rub0,2024-08-15T00:00:00.000,Avenue P,Brooklyn,11223,3044200,BK1204,40.609813,-73.964606,9.96,No,,nicely_great_perch,fs3-00146,good,2026-06-09T20:33:43.172Z,pluvial,2024-08-15T12:09:00,['nycem'],False
BX - Dewey Ave/ Balcom Ave,BX-balcom-ave-dewey-ave-2n5dw0,2025-10-24T00:00:00.000,Dewey Avenue,Bronx,10465,2014400,BX1002,40.82035,-73.82525,11.65,No,,bright_black_quail,fs3-00543,good,2025-10-28T19:20:00.110Z,pluvial,2025-10-24T12:00:00,['NYCHA'],True
SI - Bedford Ave/Kiswick St,SI-bedford-ave-kiswick-st-1j3pw0,2023-09-07T00:00:00.000,Bedford Avenue,Staten Island,10306,5011203,SI0202,40.575318,-74.095266,9.13,Yes,,widely_mint_rabbit,fs5-00898,good,2026-06-03T15:43:53.275Z,coastal,2023-09-07T00:00:00,['dep'],True
BX - Brady Ave/ Muliner Ave,BX-brady-ave-muliner-ave-2917g0,2025-01-23T00:00:00.000,Muliner Avenue,Bronx,10462,2024600,BX1102,40.852026,-73.86201,3.7,No,,basically-enabling-squid,fs3-00296,good,2026-04-13T16:03:04.801Z,pluvial,2025-01-23T02:00:00,['dep'],False
Q - 59th Ave/175th St,Q-59th-ave-175th-st-21u2nc,2024-09-05T00:00:00.000,175th Street,Queens,11365,4141700,QN1101,40.740155,-73.795243,9.72,No,,solely-nice-wren,fs3-00174,good,2026-01-09T18:20:50.701Z,pluvial,2024-09-05T03:38:00,,False
BK - Kent Ave/Wallabout St,BK-kent-ave-wallabout-st-19r2g0,2023-03-09T00:00:00.000,Kent Avenue,Brooklyn,11249,3053700,BK0103,40.699336,-73.960584,10.31,No,,light_maroon_penguin,fs-00065,noisy,2026-06-09T15:53:35.177Z,pluvial,2023-03-09T00:00:00,[],True
BK - Newel Ave/ Meserole St,BK-meserole-ave-newel-st-2if0k0,2025-07-24T00:00:00.000,"Newel Street, Newell Street",Brooklyn,11222,3057300,BK0101,40.728355,-73.94935,10.2,No,,noticeably-safe-swine,fs3-00209,noisy,2026-06-01T14:48:25.700Z,pluvial,2025-07-24T12:00:00,,True
Q - 161st Ave/99th St,Q-161st-ave-99th-st-1a5q80,2023-03-17T00:00:00.000,"161st Avenue, Grimm Avenue",Queens,11414,4088400,QN1003,40.656567,-73.833553,18.15,Yes,,lonely_quiet_bear,fs-00050,good,2026-06-03T20:48:41.256Z,coastal,2023-03-17T00:00:00,[],True
BX - White Plains Rd/Story Ave,BX-white-plains-rd-story-ave-1zbxz0,2024-07-18T00:00:00.000,Story Avenue,Bronx,10473,2004200,BX0902,40.824326,-73.858637,16.34,No,,simply_keen_quagga,fs3-00544,good,2025-10-27T14:41:35.802Z,pluvial,2024-07-18T11:33:00,['dep'],True
BK - Marion St/Howard Ave,BK-marion-st-howard-ave-215zzc,2024-08-23T00:00:00.000,Marion Street,Brooklyn,11233,3037900,BK0302,40.680855,-73.91946,8.78,No,,mainly_alert_magpie,fs3-00523,good,2026-01-09T17:48:44.543Z,pluvial,2024-08-23T03:38:00,,False
BK - Rockaway Pkwy/ Clarkson Ave,BK-rockaway-pkwy-clarkson-ave-1dni00,2023-05-24T00:00:00.000,Rockaway Parkway,Brooklyn,11212,3089200,BK1704,40.661108,-73.919957,21.14,No,,hardly_usable_boxer,fs-00088,noisy,2026-04-09T20:12:45.774Z,pluvial,2023-05-24T00:00:00,[],False
Q - Woodhull Ave/ 193rd St,Q-woodhull-ave-193rd-st-2msf80,2025-10-17T00:00:00.000,193rd Street,Queens,11423,4050000,QN1206,40.71099,-73.76662,9.53,No,,extremely-discrete-gull,fs5-00486,good,2026-03-19T17:26:52.204Z,pluvial,2025-10-17T12:00:00,['Researcher'],False
SI - Minthorne St/ Victory Blvd,SI-bay-st-minthorne-st-2agb10,2025-02-19T00:00:00.000,Minthorne Street,Staten Island,10301,5002100,SI0102,40.637624,-74.07525,7.8,No,,firmly-outgoing-weevil,fs3-00207,good,2026-04-13T16:03:53.965Z,pluvial,2025-02-19T16:15:00,,False
Q - 147th Ave/Springfield Ln,Q-147th-ave-springfield-ln-20pvio,2024-08-14T00:00:00.000,Springfield Lane,Queens,11413,4032000,QN1306,40.659535,-73.759907,12.83,No,,simply_famous_horse,fs3-00155,good,2026-01-09T18:11:02.739Z,pluvial,2024-08-14T10:40:00,['\t Queens Borough President Office'],True
M - E 79th St/ Park Ave,M-e-79th-st-park-ave-2ausk0,2025-02-27T00:00:00.000,East 79th Street,Manhattan,10075,1014200,MN0802,40.776,-73.96116,6.65,No,,firmly-fitting-marlin,fs3-00275,good,2026-03-19T17:25:16.255Z,pluvial,2025-02-27T12:00:00,['dep'],False
M - Park Ave/ Tito Puente Wy,M-park-ave-tito-puente-wy-1yjco0,2024-07-03T00:00:00.000,East 110th Street,Manhattan,10029,1017402,MN1101,40.795714,-73.946467,14.88,No,,evenly_cool_ram,fs3-00193,good,2025-10-15T15:25:22.707Z,pluvial,2024-07-03T15:26:00,['dep'],True
BX - Furman Ave/ E240th St,BX-e-240th-st-furman-ave-2n5dw0,2025-10-24T00:00:00.000,Furman Avenue,Bronx,10470,2043400,BX1203,40.90155,-73.85064,8.62,No,,tiny_blue_impala,fs5-00670,dead,2026-06-10T15:20:19.733Z,pluvial,2025-10-24T12:00:00,"['dep', 'mta']",False
BK - Wythe Ave/Wallabout St,BK-wythe-ave-wallabout-st-19qzo0,2023-03-09T00:00:00.000,Wythe Avenue,Brooklyn,11249,3053700,BK0103,40.699542,-73.958983,5.63,No,,total_melt_deer,fs-00053,good,2026-06-03T20:49:37.503Z,pluvial,2023-03-09T00:00:00,[],True
SI - Snug Harbor Rd / Kissel Ave,SI-kissel-ave-snug-harbor-rd-2agb9c,2025-02-19T00:00:00.000,Snug Harbor Road,Staten Island,10310,5009702,SI0191,40.644221,-74.106407,5.67,No,,explicitly-secure-sheep,fs3-00293,good,2026-03-16T15:48:22.818Z,pluvial,2025-02-19T16:20:00,,True
BK - Walton St/Marcy Ave,BK-walton-st-marcy-ave-19qww0,2023-03-09T00:00:00.000,Walton Street,Brooklyn,11206,3053102,BK0103,40.700821,-73.951335,10.91,No,,clearly_bored_turtle,fs-00061,good,2026-06-03T20:51:35.553Z,pluvial,2023-03-09T00:00:00,[],True
BK - Fulton St/ Malcom X Blvd,BK-malcolm-x-blvd-fulton-st-2mfbf0,2025-10-10T00:00:00.000,Fulton Street,Brooklyn,11233,3038100,BK0302,40.6793,-73.92834,6.38,No,,presently-bursting-ghost,fs5-00478,good,2026-01-09T17:44:37.615Z,pluvial,2025-10-10T10:09:00,['dep'],False
BK - 41st St/2nd Ave,BK-2nd-ave-41st-st-20cdbc,2024-08-07T00:00:00.000,41st Street,Brooklyn,11232,3000200,BK0702,40.654176,-74.011831,13.58,No,,solely_nice_beagle,fs3-00163,good,2025-10-08T20:19:24.841Z,pluvial,2024-08-07T03:38:00,['NYU'],True
Q - 177th St/147th Ave,Q-177th-st-147th-ave-20pvr0,2024-08-14T00:00:00.000,177th Street,Queens,11434,4032000,QN1306,40.660523,-73.768886,14.65,No,,fully_modest_rodent,fs3-00156,good,2025-08-28T19:52:57.089Z,pluvial,2024-08-14T10:45:00,['community'],True
M - W 125th St/12th Ave,M-w-125th-st-12th-ave-1yji80,2024-07-03T00:00:00.000,West 130th Street,Manhattan,10027,1021900,MN0902,40.818058,-73.959927,23.9,No,,gladly_kind_mullet,fs3-00308,signal,2026-05-28T18:12:43.607Z,pluvial,2024-07-03T15:13:00,['dep'],True
SI - McLaughlin St/Agnes Pl,SI-mclaughlin-st-agnes-pl-1aigk0,2023-03-24T00:00:00.000,McLaughlin Street,Staten Island,10305,5007002,SI0201,40.589132,-74.072692,16.69,Yes,,likely-well-thrush,fs5-00419,good,2026-06-03T20:11:48.826Z,coastal,2023-03-24T00:00:00,[],True
BX - Cross St/Minnieford Ave,BX-cross-st-minnieford-ave-1kwos0,2023-10-12T00:00:00.000,Minnieford Avenue,Bronx,10464,2051601,BX1003,40.853159,-73.788843,7.2,Yes,,fluttering_massive_faucet,fs5-00611,noisy,2026-06-10T16:22:20.309Z,coastal,2023-10-12T00:00:00,['community '],True
BX - E 165th St/Teller Ave,BX-e-165th-st-teller-ave-214ty0,2024-08-22T00:00:00.000,East 165th Street,Bronx,10456,2017300,BX0401,40.828463,-73.914039,8.5,No,,deadly-expert-skunk,fs3-00534,good,2025-09-26T23:12:56.736Z,pluvial,2024-08-22T12:30:00,['dep'],False
BK - E 17th St/Elm Ave,BK-elm-ave-e-17th-st-2lawnc,2025-09-18T00:00:00.000,East 17th Street,Brooklyn,11230,3076800,BK1403,40.618491,-73.958259,9.72,No,,unlucky_gold_bird,fs5-00473,good,2026-06-08T17:08:53.311Z,pluvial,2025-09-18T14:26:00,,False
BK - E 57th St/Snyder Ave,BK-e-57th-st-snyder-ave-20rw0o,2024-08-15T00:00:00.000,Snyder Avenue,Brooklyn,11203,3093600,BK1703,40.650585,-73.923201,20.43,No,,early_neat_satyr,fs3-00120,good,2025-09-24T20:45:01.169Z,pluvial,2024-08-15T12:46:00,['dep'],False
Q - Maurice Ave/Queens Midtown Expressway,Q-maurice-ave-queens-midtown-expy-1vejk0,2024-05-03T00:00:00.000,"Queens Midtown Expressway, Borden Avenue",Queens,11378,4051100,QN0501,40.727627,-73.90663,11.3,No,,openly_bright_llama,fs3-00369,good,2026-02-03T15:52:43.008Z,pluvial,2024-05-03T00:00:00,['dep'],False
BX - Cedar Ave/W 179th St,BX-w-179th-st-cedar-ave-1vpt40,2024-05-09T00:00:00.000,Cedar Avenue,Bronx,10453,2024700,BX0501,40.855564,-73.917483,2.87,No,,firmly_sharp_mullet,fs5-00791,low_charge,2026-06-10T19:44:43.788Z,pluvial,2024-05-09T00:00:00,['dep'],False
BX - Bronxdale Ave/ Poplar St,BX-bronxdale-ave-poplar-st-291z80,2025-01-23T00:00:00.000,Bronxdale Avenue,Bronx,10462,2023800,BX1101,40.84272,-73.85472,5.98,No,,basically-equipped-amoeba,fs3-00290,non-ota,2026-01-09T17:58:45.381Z,pluvial,2025-01-23T12:00:00,['dep'],False
Q - Hillside Ave/127th St,Q-hillside-ave-127th-st-21vxbc,2024-09-06T00:00:00.000,127th Street,Queens,11418,4014201,QN0902,40.703141,-73.824329,9.25,No,,newly-true-finch,fs3-00320,good,2025-09-08T16:04:26.865Z,pluvial,2024-09-06T03:38:00,,False
Q - Holly Ave/Union St,Q-holly-ave-union-st-1vcow0,2024-05-02T00:00:00.000,"Holly Avenue, 46th Avenue",Queens,11355,4120500,QN0705,40.751463,-73.817921,3.58,No,,openly_rested_frog,fs3-00450,good,2026-01-09T18:30:55.891Z,pluvial,2024-05-02T00:00:00,['community'],False
SI - Quincy Ave/Iona St,SI-quincy-ave-iona-st-1deh00,2023-05-19T00:00:00.000,"Quincy Avenue, Comanche Avenue",Staten Island,10305,5011201,SI0202,40.576402,-74.084275,3.7,Yes,,poorly_sunny_earwig,fs5-00484,good,2026-06-02T19:57:38.578Z,coastal,2023-05-19T00:00:00,[],True
BK - Troy Ave/Farragut Rd,BK-troy-ave-farragut-rd-20rv6o,2024-08-15T00:00:00.000,Farragut Road,Brooklyn,11203,3083600,BK1702,40.637051,-73.934856,8.5,No,,rarely_sacred_insect,fs3-00127,good,2026-01-09T17:55:14.273Z,pluvial,2024-08-15T12:28:00,['community'],False
Q - Beach 84 St,Q-beach-84-st-0me680,2021-12-10T00:00:00.000,Beach 84th Street,Queens,11693,4094202,QN1402,40.59136,-73.80996,8.27,Yes,,daily_happy_satyr,fs3-00288,noisy,2026-04-20T14:30:15.643Z,coastal,2021-12-10T00:00:00,['community'],True
Q - 85th St/91st Ave,Q-85th-st-91st-ave-1zbc0d,2025-03-13T00:00:00.000,85th Street,Queens,11421,4000800,QN0905,40.687854,-73.857288,15.75,No,,strictly-mutual-moray,fs3-00319,needs_driverail,2026-01-09T18:22:47.101Z,pluvial,2025-03-13T12:00:00,,False
BX - River Ave / E 153rd St,BX-e-153rd-st-river-ave-2kksk0,2025-09-04T00:00:00.000,"River Avenue, Cromwell Avenue",Bronx,10451,2006301,BX0401,40.82434,-73.92807,11.89,No,,loudly-talented-minnow,fs5-00663,good,2026-03-20T18:58:44.336Z,pluvial,2025-09-04T12:00:00,,False
SI - Lenevar Ave & Drumgoole Rd W,SI-lenevar-ave--drumgoole-rd-w-1wubg0,2024-05-31T00:00:00.000,Lenevar Avenue,Staten Island,10309,5020803,SI0304,40.531504,-74.206958,8.03,No,,safely_tight_pug,fs3-00390,good,2026-03-02T17:45:56.952Z,pluvial,2024-05-31T00:00:00,['dep'],False
Q - 48th Ave/108th St,Q-48th-ave-108th-st-20pto0,2024-08-14T00:00:00.000,108th Street,Queens,11368,4041500,QN0402,40.746128,-73.856278,54.49,No,,oddly_prompt_stud,fs3-00137,good,2026-06-03T20:14:57.612Z,pluvial,2024-08-14T10:00:00,['community'],False
SI - Chapin Ave/Dalemere Rd,SI-chapin-ave-dalemere-rd-1uzko0,2024-04-25T00:00:00.000,Chapin Avenue,Staten Island,10304,5017701,SI0203,40.597499,-74.101773,4.33,No,,only_wise_mule,fs3-00301,signal,2026-04-09T15:56:37.021Z,pluvial,2024-04-25T00:00:00,['dep'],False
BX - Boynton Ave/Lafayette Ave,BX-boynton-ave-lafayette-ave-1zby7c,2024-07-18T00:00:00.000,Lafayette Avenue,Bronx,10473,2002800,BX0901,40.819703,-73.876275,9.37,No,,humbly_casual_heron,fs3-00263,good,2026-01-09T17:57:29.656Z,pluvial,2024-07-18T11:38:00,['dep'],True
SI - Sweetbrook Rd & Ridgewood Ave,SI-sweetbrook-rd--ridgewood-ave-1wue80,2024-05-31T00:00:00.000,Leverett Avenue,Staten Island,10312,5014607,SI0302,40.555541,-74.164706,50.51,No,,weekly_smart_frog,fs3-00385,good,2026-03-16T16:11:01.330Z,pluvial,2024-05-31T00:00:00,['dep'],False
BK - Ocean Pkwy/Avenue W,BK-ocean-pkwy-avenue-w-20rtno,2024-08-15T00:00:00.000,"Ocean Parkway, Ocean Parkway Service Road",Brooklyn,11223,3039000,BK1501,40.593196,-73.96431,5.98,No,,openly_fleet_tapir,fs3-00145,good,2026-01-09T17:51:04.056Z,pluvial,2024-08-15T11:55:00,['dep'],True
BX - Tibbett Ave/W 234th St,BX-w-234th-st-tibbett-ave-2cakho,2025-03-27T00:00:00.000,Tibbett Avenue,Bronx,10463,2028700,BX0802,40.88326,-73.90585,4.09,No,,apparently-darling-gecko,fs3-00286,good,2026-05-06T19:39:29.436Z,pluvial,2025-03-27T11:01:00,,False
SI - Rector St/Richmond Terr,SI-rector-st-richmond-terr-1aijc0,2023-03-24T00:00:00.000,Rector Street,Staten Island,10310,5013302,SI0106,40.637113,-74.127786,9.02,Yes,,sadly-direct-walrus,fs3-00222,dead,2026-05-19T19:20:04.772Z,coastal,2023-03-24T00:00:00,[],True
BK - Blake Ave/Strauss St,BK-blake-ave-strauss-st-1dnks0,2023-05-24T00:00:00.000,Blake Avenue,Brooklyn,11212,3090200,BK1602,40.664865,-73.915238,10.67,No,,daily_ace_bear,fs3-00447,noisy,2026-06-09T15:24:59.841Z,pluvial,2023-05-24T00:00:00,[],False
BK - E 45th St/ Rutland Rd,BK-e-45th-st-rutland-rd-1dnf80,2023-05-24T00:00:00.000,East 45th Street,Brooklyn,11203,3087600,BK0902,40.660232,-73.936183,10.31,No,,barely_hot_aphid,fs-00086,good,2025-08-15T16:09:02.586Z,pluvial,2023-05-24T00:00:00,[],False
SI - Grimsby St/ Mapleton Ave,SI-grimsby-st-mapleton-ave-1de5w0,2023-05-19T00:00:00.000,Grimsby Street,Staten Island,10306,5011203,SI0202,40.574836,-74.093448,7.68,Yes,,purely_fancy_kite,fs5-00836,good,2026-06-03T15:16:25.849Z,coastal,2023-05-19T00:00:00,['dep'],True
Q - 87th St/Astoria Blvd,Q-87th-st-astoria-blvd-1pmwk0,2024-01-12T00:00:00.000,87th Street,Queens,11369,4032900,QN0302,40.764667,-73.881841,4.92,No,,curly_furry_squirrel,fs3-00237,good,2025-09-15T18:48:49.684Z,pluvial,2024-01-12T00:00:00,['dep'],False
Q - Beach 84 St (2),Q-beach-84th-st-beach-channel-dr-2nf0xc,2025-10-29T00:00:00.000,Beach 84th Street,Queens,11693,4094202,QN1402,40.591699,-73.809929,5.39,Yes,,unlucky_white_wolverine,fs3-00236,good,2026-01-09T18:25:29.740Z,coastal,2025-10-29T16:56:00,,True
Q - 169th St/Underhill Ave,Q-169th-st-underhill-ave-21u2nc,2024-09-05T00:00:00.000,169th Street,Queens,11365,4120701,QN0705,40.746942,-73.799275,10.2,No,,widely-just-bat,fs3-00370,dead,2026-05-04T15:48:48.552Z,pluvial,2024-09-05T03:38:00,,False
Q - 69th Ave/195th Ln,Q-69th-ave-195th-ln-21u2nc,2024-09-05T00:00:00.000,69th Avenue,Queens,11365,4134702,QN0803,40.736703,-73.778413,9.37,No,,simply-solid-cub,fs5-00606,good,2026-04-01T14:52:11.476Z,pluvial,2024-09-05T03:38:00,,False
Q - Roosevelt Ave/63rd St,Q-roosevelt-ave-63rd-st-214pvc,2024-08-22T00:00:00.000,63rd Street,Queens,11377,4026100,QN0203,40.745686,-73.901113,27.36,No,,daily_joint_husky,fs5-00424,good,2026-06-08T18:18:14.310Z,pluvial,2024-08-22T11:02:00,['Office of Assemblymember Steven Raga'],False
BX - Broadway/Mosholu Ave,BX-mosholu-ave-broadway-2cal1o,2025-03-27T00:00:00.000,"Broadway, New York 9 A, US Highway 9 South, New York State Route 9A, US-9 North, US Highway 9 North, State Route 9 A, US-9 South",Bronx,10471,2043503,BX2691,40.90418,-73.89626,9.25,No,,rationally-thankful-asp,fs5-00677,good,2026-03-28T02:17:54.160Z,pluvial,2025-03-27T11:13:00,,False
SI - Genesee Ave/Richmond Ave,SI-genesee-ave-richmond-ave-20e7zc,2024-08-08T00:00:00.000,Richmond Avenue,Staten Island,10312,5017012,SI0302,40.552834,-74.168147,19.09,No,,lovely_up_boxer,fs3-00545,good,2025-11-10T20:42:20.407Z,pluvial,2024-08-08T03:38:00,['dep'],True
BK - Pioneer St/Conover St,BK-pioneer-st-conover-st-0pzvo0,2022-02-18T00:00:00.000,Conover Street,Brooklyn,11231,3005301,BK0601,40.679734,-74.012422,16.22,No,,gladly_mint_snail,fs5-00412,good,2026-03-04T20:51:50.265Z,pluvial,2022-02-18T00:00:00,['community'],True
M - Mangin St/Stanton St,M-stanton-st-mangin-st-1vri80,2024-05-10T00:00:00.000,"Stanton Street, A New Street",Manhattan,10002,1001002,MN0302,40.717852,-73.976247,12.01,No,,likely_prompt_gibbon,fs5-00635,good,2026-03-04T21:20:19.024Z,pluvial,2024-05-10T00:00:00,['community'],True
Q - Beach 42nd St/Beach Channel Dr,Q-beach-42nd-st-beach-channel-dr-1zduec,2024-07-19T00:00:00.000,Beach Channel Drive,Queens,11691,4097206,QN1402,40.595867,-73.773651,10.59,Yes,,oddly_eager_hen,fs5-00789,dead,2026-05-19T18:38:23.773Z,coastal,2024-07-19T12:11:00,['community'],True
Q - Bell Blvd / Northern Blvd,Q-bell-blvd-northern-blvd-2kxsno,2025-09-11T00:00:00.000,"Northern Boulevard, New York State Route 25A, State Route 25 A, New York 25 A",Queens,11361,4146700,QN1102,40.760432,-73.769284,9.13,No,,ghastly-credible-bluegill,fs5-00661,noisy,2026-06-09T15:27:36.239Z,pluvial,2025-09-11T12:31:00,,False
Q - 150th St/41st Ave,Q-41st-ave-150th-st-1vcm40,2024-05-02T00:00:00.000,41st Avenue,Queens,11355,4116700,QN0704,40.762516,-73.813991,10.43,No,,mainly_moving_emu,fs3-00075,good,2025-12-11T20:30:45.615Z,pluvial,2024-05-02T00:00:00,['community'],False
M - W 81st St/ Riverside Dr,M-riverside-dr-w-81st-st-2ausk0,2025-02-27T00:00:00.000,Riverside Drive,Manhattan,10024,1016700,MN0702,40.786217,-73.981525,10.16,No,,hopelessly-accepted-louse,fs3-00311,good,2026-01-23T21:00:20.777Z,pluvial,2025-02-27T12:00:00,['dep'],False
M - Lexington Ave/E 26th St,M-e-26th-st-lexington-ave-2mfdi0,2025-10-10T00:00:00.000,Lexington Avenue,Manhattan,10010,1006800,MN0602,40.74119,-73.98337,10.24,No,,zestfully-whole-fox,fs5-00729,reposition_requested,2026-06-02T20:34:36.549Z,pluvial,2025-10-10T10:54:00,,False
Q - 235th St/129th Ave,Q-235th-st-129th-ave-20pwg0,2024-08-14T00:00:00.000,235th Street,Queens,11422,4061601,QN1305,40.680741,-73.732096,9.72,No,,hugely_calm_thrush,fs3-00139,good,2026-01-09T18:16:05.823Z,pluvial,2024-08-14T11:00:00,['dep'],False
Q - Brookville Blvd/ 149th St,Q-brookville-blvd-149th-ave-1zbc0d,2025-08-21T00:00:00.000,Brookville Boulevard,Queens,11422,4069400,QN1306,40.65265,-73.746437,8.9,Yes,,fast_white_rabbit,fs5-00724,good,2026-04-28T16:43:29.795Z,coastal,2025-08-21T16:14:00,,True
Q - 50th Ave/65th Pl,Q-50th-ave-65th-pl-1vemc0,2024-05-03T00:00:00.000,65th Place,Queens,11377,4024300,QN0203,40.73715,-73.900019,10.35,No,,lately_tender_jackal,fs5-00812,good,2026-06-09T15:01:29.581Z,pluvial,2024-05-03T00:00:00,['dep'],False
BK - Utica Ave/Rutland Rd,BK-utica-ave-rutland-rd-215zzc,2024-08-23T00:00:00.000,Rutland Road,Brooklyn,11203,3088002,BK1703,40.660655,-73.931103,11.02,No,,slowly_steady_stork,fs3-00227,good,2026-01-09T17:55:27.132Z,pluvial,2024-08-23T03:38:00,,False
Q - Davenport Ct 1,Q-davenport-ct-1-07zks0,2021-03-05T00:00:00.000,Davenport Court,Queens,11414,4088400,QN1003,40.653387,-73.830559,6.97,Yes,,mildly_calm_ibex,fs-00006,noisy,2026-05-27T18:52:59.571Z,coastal,2021-03-05T00:00:00,['community'],True
Q - 63rd St/Laurel Hill Blvd,Q-63rd-st-laurel-hill-blvd-214qc0,2024-08-22T00:00:00.000,63rd Street,Queens,11377,4024300,QN0203,40.738246,-73.902776,10.55,No,,only_set_calf,fs3-00117,good,2026-01-23T17:58:09.858Z,pluvial,2024-08-22T11:12:00,"[""\t Queens Borough President's Office""]",False
BX - E Gun Hill Rd/ Gunther Ave,BX-allerton-ave-e-gun-hill-rd-2918u0,2025-01-23T00:00:00.000,East Gun Hill Road,Bronx,10469,2035600,BX1202,40.864261,-73.834248,19.33,No,,obviously-trusting-aardvark,fs3-00298,good,2026-01-09T18:03:08.721Z,pluvial,2025-01-23T02:30:00,,True
Q - 54th Ave / Second St,Q-2nd-st-54th-ave-2k9of0,2025-08-29T00:00:00.000,2nd Street,Queens,11101,4000101,QN0201,40.740837,-73.959307,7.09,No,,tender_gold_goose,fs5-00490,good,2026-06-08T18:01:44.631Z,pluvial,2025-08-29T11:57:00,,True
BK - Morgan Ave/Johnson Ave,BK-morgan-ave-johnson-ave-1e4600,2023-06-02T00:00:00.000,Morgan Avenue,Brooklyn,11237,3048500,BK0104,40.707861,-73.932426,36.97,No,,widely_whole_tarpon,fs-00090,good,2025-08-28T19:27:07.714Z,pluvial,2023-06-02T00:00:00,['dep'],False
Q - Beach 72nd St/Almeda Ave,Q-beach-72nd-st-almeda-ave-1a5hw0,2023-03-17T00:00:00.000,Beach 72nd Street,Queens,11692,4095400,QN1402,40.596572,-73.800994,15.39,Yes,,random_stuck_buffalo,fs-00063,good,2026-06-03T20:47:50.445Z,coastal,2023-03-17T00:00:00,['community'],True
Q - 51st Ave/71st St,Q-51st-ave-71st-st-20qac0,2024-08-14T00:00:00.000,71st Street,Queens,11377,4048900,QN0203,40.735848,-73.893286,27.36,No,,newly_humble_quail,fs5-00895,good,2026-06-03T20:14:23.681Z,pluvial,2024-08-14T16:00:00,['dep'],False
Q - Brookville Blvd/147 Ave,Q-brookville-blvd-147-ave-1i17s0,2023-08-17T00:00:00.000,147th Avenue,Queens,11422,4066401,QN1307,40.65733,-73.744879,6.61,Yes,,vastly_select_guinea,fs5-00774,good,2026-03-30T19:10:19.914Z,coastal,2023-08-17T00:00:00,['dep'],True
M - Lexington Ave/E 104th St,M-lexington-ave-e-104th-st-1yjfg0,2024-07-03T00:00:00.000,East 104th Street,Manhattan,10029,1016600,MN1101,40.791021,-73.947317,8.62,No,,widely_aware_boxer,fs3-00254,good,2026-01-13T16:46:48.430Z,pluvial,2024-07-03T16:11:00,['nycem'],True
Q - Beach 29th St/Seagirt Ave,Q-beach-29th-st-seagirt-ave-1w2p00,2024-05-16T00:00:00.000,Beach 29th Street,Queens,11691,4099802,QN1401,40.594737,-73.761827,28.43,No,,vastly_deep_glider,fs3-00387,good,2025-08-25T20:59:40.100Z,pluvial,2024-05-16T00:00:00,['dep'],True
BK - Wallabout St/Harrison Ave,BK-wallabout-st-harrison-ave-19qrc0,2023-03-09T00:00:00.000,Wallabout Street,Brooklyn,11206,3050700,BK0103,40.701603,-73.948601,12.83,No,,simply_half_monkey,fs5-00811,good,2026-04-13T20:07:33.791Z,pluvial,2023-03-09T00:00:00,[],True
BK - 16th Ave/80th St,BK-16th-ave-80th-st-20cdbc,2024-08-07T00:00:00.000,80th Street,Brooklyn,11214,3018200,BK1101,40.613281,-74.003602,3.46,No,,poorly_many_snake,fs3-00350,noisy,2026-04-29T14:44:26.876Z,pluvial,2024-08-07T03:38:00,['NYCEM'],False
Q - 204th St/ 100th Ave,Q-204th-st-100th-ave-2msf80,2025-10-17T00:00:00.000,204th Street,Queens,11423,4051000,QN1206,40.71147,-73.75595,6.93,No,,remotely-cunning-bullfrog,fs5-00496,good,2026-03-03T15:35:37.279Z,pluvial,2025-10-17T12:00:00,['Researcher'],False
SI - Lyon Pl/Devens St,SI-lyon-pl-devens-st-0xwzk0,2022-07-22T00:00:00.000,Lyon Place,Staten Island,10314,5025100,SI0105,40.619373,-74.147436,16.22,No,,future_aqua_wildcat,fs-00032,noisy,2026-04-09T20:12:45.774Z,pluvial,2022-07-22T00:00:00,[],False
BX - Story Ave/Boynton Ave,BX-story-ave-boynton-ave-1zby0o,2024-07-18T00:00:00.000,Boynton Avenue,Bronx,10473,2002800,BX0901,40.821901,-73.876581,9.25,No,,overly_grand_dove,fs3-00321,good,2025-08-12T18:43:17.882Z,pluvial,2024-07-18T11:34:00,['nycem'],True
Q - Queens Blvd/Broadway,Q-queens-boulevard-broadway-20q4s0,2024-08-14T00:00:00.000,Queens Boulevard,Queens,11373,4047300,QN0401,40.73671,-73.877074,13.94,No,,mostly_happy_beagle,fs3-00144,dead,2026-06-09T14:21:29.359Z,pluvial,2024-08-14T14:00:00,"['dep', 'MTA']",False
Q - Beach 35 St/Beach Channel Dr,Q-beach-35-st-beach-channel-dr-1oeug0,2023-12-19T00:00:00.000,Beach 35th Street,Queens,11691,4099200,QN1401,40.596618,-73.767808,6.97,Yes,,dryly_receptive_rabbit,fs3-00256,good,2026-06-03T20:31:40.124Z,coastal,2023-12-19T00:00:00,['community'],True
BK - 2nd Ave/49th St,BK-2nd-ave-49th-st-2l8qvc,2025-09-17T00:00:00.000,2nd Avenue,Brooklyn,11232,3001803,BK0702,40.649742,-74.01632,5.98,No,,spotty_brown_bobcat,fs5-00469,needs_sensor,2026-06-08T17:06:47.121Z,pluvial,2025-09-17T10:26:00,,False
Q - 71st St/31st Ave,Q-71st-st-31st-ave-214p1c,2024-08-22T00:00:00.000,71st Street,Queens,11370,4030905,QN0301,40.758415,-73.896246,10.83,No,,duly_pumped_wren,fs3-00204,good,2026-01-13T17:40:35.185Z,pluvial,2024-08-22T10:44:00,['community'],False
BK - Hancock St/Marcy Ave,BK-hancock-st-marcy-ave-2mfkg0,2025-10-10T00:00:00.000,Hancock Street,Brooklyn,11216,3024900,BK0301,40.68294,-73.9469,9.49,No,,initially-enjoyed-mustang,fs5-00492,good,2026-01-13T16:48:06.682Z,pluvial,2025-10-10T13:24:00,"['community', 'Brooklyn CB3']",False
M - 10th Ave/ W 211th St,M-10th-ave-w-211th-st-1yhnk0,2024-07-02T00:00:00.000,West 211th Street,Manhattan,10034,1030300,MN1203,40.867128,-73.917187,11.02,No,,solely_strong_eft,fs3-00302,dead,2026-05-20T20:56:19.880Z,pluvial,2024-07-02T14:58:00,['dep'],True
Q - Utopia Pkwy/ 67th Ave,Q-utopia-pkwy-67th-ave-1lmjc0,2023-10-26T00:00:00.000,Utopia Parkway,Queens,11365,4134100,QN0803,40.734408,-73.79335,7.32,No,,lively_wanted_louse,fs3-00525,good,2026-03-16T15:57:59.435Z,pluvial,2023-10-26T00:00:00,['dep'],False
Q - Astoria Park/ 18th St,Q-astoria-park-south-18th-st-2ausk0,2025-02-27T00:00:00.000,"Astoria Park South, Astoria Avenue South",Queens,11102,4009100,QN0102,40.775789,-73.926152,9.41,No,,thoroughly-settling-raven,fs3-00314,good,2025-08-15T16:12:25.212Z,pluvial,2025-02-27T12:00:00,,False
SI - Ridgewood Ave/Arthur Kill Rd,SI-ridgewood-ave-arthur-kill-rd-20e7zc,2024-08-08T00:00:00.000,Arthur Kill Road,Staten Island,10312,5014607,SI0302,40.560325,-74.166351,8.9,Yes,,duly_exotic_collie,fs3-00210,good,2026-02-18T16:14:43.650Z,coastal,2024-08-08T03:38:00,['community'],True
BK - Vanderbilt Ave/Flushing Ave,BK-vanderbilt-ave-flushing-ave-214o0o,2024-08-22T00:00:00.000,Vanderbilt Avenue,Brooklyn,11205,3021100,BK0203,40.697725,-73.970675,16.1,No,,kindly_vital_hen,fs3-00023,good,2025-09-02T18:38:55.545Z,pluvial,2024-08-22T10:22:00,['nycem'],True
Q - 183rd St/90th Ave,Q-183rd-st-90th-ave-1lmow0,2023-10-26T00:00:00.000,90th Avenue,Queens,11423,4047000,QN1201,40.711128,-73.777904,9.49,No,,yearly_frank_mullet,fs3-00449,noisy,2026-05-21T13:50:00.549Z,pluvial,2023-10-26T00:00:00,['community'],False
Q - 175th St/75th Ave,Q-175th-st-75th-ave-21u2nc,2024-09-05T00:00:00.000,175th Street,Queens,11366,4124700,QN0802,40.728269,-73.794784,8.74,No,,gently-top-dory,fs3-00524,good,2026-01-09T18:13:58.711Z,pluvial,2024-09-05T03:38:00,,False
SI - Hylan Blvd/ Jefferson Blvd,SI-hylan-blvd-jefferson-blvd-1nhfo0,2023-12-01T00:00:00.000,Hylan Boulevard,Staten Island,10306,5011201,SI0202,40.581063,-74.098494,11.42,Yes,,oddly_valid_asp,fs3-00287,signal,2026-06-03T15:49:10.973Z,coastal,2023-12-01T00:00:00,[],True
M - Thompson St/Grand St,M-grand-st-thompson-st-2suz00,2026-02-12T00:00:00.000,Thompson Street,Manhattan,10013,1004700,MN0201,40.722921,-74.004389,10.12,No,,terminally-united-boxer,fs5-00737,good,2026-06-03T20:13:22.108Z,pluvial,2026-02-12T12:24:00,,True
BK - Knickerbocker Ave/ Hart St,BK-knickerbocker-ave-hart-st-1e48s0,2023-06-02T00:00:00.000,Knickerbocker Avenue,Brooklyn,11237,3042900,BK0401,40.70142,-73.923109,10.43,No,,early_calm_ghoul,fs-00056,good,2026-01-29T19:57:10.742Z,pluvial,2023-06-02T00:00:00,['dep'],False
BK - Lawrence Ave/Seton Pl,BK-lawrence-ave-seton-pl-2lawdc,2025-09-18T00:00:00.000,Lawrence Avenue,Brooklyn,11230,3048000,BK1402,40.630042,-73.974964,10.59,No,,selfish_blue_skunk,fs5-00497,good,2025-10-21T14:39:36.579Z,pluvial,2025-09-18T14:20:00,,False
Q - 10th St/ Vernon Blvd,Q-10th-st-vernon-blvd-2ausk0,2025-02-27T00:00:00.000,10th Street,Queens,11106,4004500,QN0105,40.767149,-73.937288,6.18,No,,uniformly-choice-grackle,fs3-00344,good,2026-01-09T18:09:34.261Z,pluvial,2025-02-27T12:00:00,['resident'],True
BK - Putnam Ave / Franklin Ave,BK-putnam-ave-franklin-ave-2jg3bo,2025-08-13T00:00:00.000,Putnam Avenue,Brooklyn,11238,3022900,BK0301,40.68345,-73.95605,8.27,No,,personally-wondrous-antelope,fs5-00465,dead,2026-05-19T18:38:47.040Z,pluvial,2025-08-13T12:31:00,,False
M - Hancock Pl/Morningside Ave,M-hancock-pl-morningside-ave-1yjfg0,2024-07-03T00:00:00.000,Morningside Avenue,Manhattan,10027,1020901,MN0901,40.810956,-73.954405,9.61,No,,newly_immune_whale,fs5-00687,good,2026-03-30T20:14:04.898Z,pluvial,2024-07-03T15:11:00,['dep'],False
BK - Coney Island Ave/Caton Ave,BK-coney-island-ave-caton-ave-2lavtc,2025-09-18T00:00:00.000,Coney Island Avenue,Brooklyn,11218,3050600,BK1402,40.648083,-73.971224,5.31,No,,plastic_navy_swan,fs5-00501,good,2026-06-02T19:53:40.977Z,pluvial,2025-09-18T14:08:00,,False
Q - 169th St/Sayres Ave,Q-169th-st-sayres-ave-1jtq00,2023-09-21T00:00:00.000,169th Street,Queens,11433,4026600,QN1202,40.69229,-73.781615,8.31,No,,evenly_cute_tomcat,fs5-00887,dead,2026-06-09T19:19:18.013Z,pluvial,2023-09-21T00:00:00,['dep'],False
BK - Neptune Ave W 29th St,BK-neptune-ave-w-29th-st-1xvic0,2024-06-20T00:00:00.000,West 29th Street,Brooklyn,11224,3032800,BK1302,40.577605,-73.995721,8.66,No,,namely_grand_dog,fs3-00326,good,2026-03-02T18:19:35.459Z,pluvial,2024-06-20T00:00:00,['community'],True
M - Broad St/South St,M-s-st-broad-st-1zbc0d,2025-08-22T00:00:00.000,Broad Street,Manhattan,10004,1000900,MN0101,40.701836,-74.011231,13.58,No,,verbally-novel-marten,fs5-00499,good,2026-03-03T20:48:58.586Z,pluvial,2025-08-22T12:00:00,,True
BK - 76th St/10th Ave,BK-10th-ave-76th-st-1umos0,2024-04-18T00:00:00.000,10th Avenue,Brooklyn,11228,3020400,BK1002,40.623751,-74.014499,22.2,No,,slowly_sharp_dog,fs3-00291,good,2026-01-09T17:34:32.956Z,pluvial,2024-04-18T00:00:00,['dep'],False
Q - Hobart St/31st Ave,Q-hobart-st-31st-ave-214plc,2024-08-22T00:00:00.000,Hobart Street,Queens,11377,4016300,QN0104,40.757299,-73.908146,23.43,No,,mostly_equal_moth,fs3-00342,signal,2026-05-11T16:26:53.277Z,pluvial,2024-08-22T10:56:00,['dep'],False
BK - Coney Island Ave/Park Circle,BK-ocean-pkwy-coney-island-ave-2lavec,2025-09-18T00:00:00.000,Coney Island Avenue,Brooklyn,11218,3050401,BK0701,40.650531,-73.972239,9.13,No,,tender_white_deer,fs5-00455,good,2026-03-04T20:50:43.372Z,pluvial,2025-09-18T13:59:00,,False
M - E Houston St/Baruch Dr,M-e-houston-st-baruch-dr-1zmfzc,2024-07-24T00:00:00.000,East Houston Street,Manhattan,10002,1002000,MN0303,40.719531,-73.977398,7.8,No,,purely_trusty_hare,fs3-00331,low_charge,2026-05-27T19:24:17.766Z,pluvial,2024-07-24T03:38:00,['dep'],True
M - Barclay St/West St,M-barclay-st-w-st-2juumc,2025-08-21T00:00:00.000,"West Street, New York 9 A, New York State Route 9A, West Side Highway, State Route 9 A",Manhattan,10007,1002100,MN0102,40.714444,-74.013332,12.13,No,,light_violet_moth,fs5-00491,good,2026-03-03T20:08:56.036Z,pluvial,2025-08-21T11:47:00,,True
Q - Kissena Blvd/ Rose Ave,Q-kissena-blvd-rose-ave-1mpkw0,2023-11-16T00:00:00.000,Kissena Boulevard,Queens,11355,4083700,QN0706,40.746096,-73.814241,5.39,No,,doubtfully_popular_fawn,fs3-00045,dead,2026-06-10T18:33:05.727Z,pluvial,2023-11-16T00:00:00,['dep'],False
BK - 3rd Ave/61st St,BK-3rd-ave-61st-st-20cdbc,2024-08-07T00:00:00.000,61st Street,Brooklyn,11220,3007200,BK0702,40.641339,-74.020726,7.91,No,,lately_tops_coral,fs3-00376,good,2026-01-20T20:16:07.876Z,pluvial,2024-08-07T03:38:00,['community'],False
BK - DeWitt Ave/Williams Ave,BK-dewitt-ave-williams-ave-215zzc,2024-08-23T00:00:00.000,Williams Avenue,Brooklyn,11207,3109800,BK0503,40.656385,-73.895703,8.15,No,,loudly_right_cub,fs3-00218,good,2026-01-09T17:40:31.722Z,pluvial,2024-08-23T03:38:00,,True
Q - 159th St/109th Ave,Q-159th-st-109th-ave-0vr4s0,2022-06-10T00:00:00.000,159th Street,Queens,11433,4025402,QN1202,40.69395,-73.793087,6.61,No,2023-09-21T00:00:00.000,nicely_brief_dory,fs5-00631,good,2026-06-03T20:20:47.280Z,pluvial,2023-09-21T00:00:00,[],False
Q - 155th Ave/79th St,Q-155th-ave-79th-st-215zzc,2024-08-23T00:00:00.000,79th Street,Queens,11414,4006202,QN1003,40.66403,-73.85473,6.5,No,,only_enough_goat,fs3-00220,good,2026-01-09T18:11:30.753Z,pluvial,2024-08-23T03:38:00,,True
Q - Brookville Blvd/ Snake Rd 1,Q-brookville-blvd-rockaway-blvd-1-23ndo0,2024-10-10T00:00:00.000,Brookville Boulevard,Queens,11422,4066401,QN1307,40.6439,-73.74448,12.24,Yes,,definitely-neat-hippo,fs3-00230,good,2026-06-03T20:30:33.951Z,coastal,2024-10-10T10:00:00,,True
Q - 41st Ave/78th St,Q-41st-ave-78th-st-1vep40,2024-05-03T00:00:00.000,41st Avenue,Queens,11373,4026700,QN0401,40.745681,-73.887337,9.45,No,,slowly_cool_colt,fs5-00671,good,2026-04-01T16:40:06.562Z,pluvial,2024-05-03T00:00:00,['community'],False
Q - Beach 43rd St,Q-beach-43rd-st-15qgw0,2022-12-21T00:00:00.000,Beach 43rd Street,Queens,11691,4097206,QN1402,40.600158,-73.775326,9.72,Yes,,bored_blue_fish,fs5-00747,good,2026-03-28T03:04:04.846Z,coastal,2022-12-21T00:00:00,['community'],True
BK - Richardson St/N 11th St,BK-richardson-st-n-11th-st-1x59w1,2024-06-06T00:00:00.000,North 11th Street,Brooklyn,11211,3051900,BK0102,40.718256,-73.952593,10.08,No,,hardly_graceful_bison,fs3-00343,good,2026-05-28T18:40:41.665Z,pluvial,2024-06-06T00:00:00,,True
M - 3rd Ave/E 25th St,M-3rd-ave-e-25th-st-2mfd4o,2025-10-10T00:00:00.000,"East 25th Street, Bernard Baruch Way",Manhattan,10010,1006800,MN0602,40.740155,-73.982282,17.56,No,,lovingly-enchanting-dromedary,fs5-00471,needs_ota_update,2026-05-20T18:23:54.258Z,pluvial,2025-10-10T10:46:00,,False
Q - Lewis Ave/101st St,Q-lewis-ave-101st-st-21u2nc,2024-09-05T00:00:00.000,Lewis Avenue,Queens,11368,4044301,QN0402,40.740431,-73.859311,17.05,No,,widely-fit-colt,fs3-00535,good,2025-10-06T14:37:30.715Z,pluvial,2024-09-05T03:38:00,,False
BK - Nautilus Ave/Surf Ave,BK-nautilus-ave-surf-ave-20cdbc,2024-08-07T00:00:00.000,Surf Avenue,Brooklyn,11224,3033600,BK1302,40.575518,-74.008308,7.8,No,,unduly_flying_hog,fs3-00124,signal,2026-05-22T20:13:37.938Z,pluvial,2024-08-07T03:38:00,['community'],True
Q - Peck Ave/153rd st,Q-peck-ave-153rd-st-1lmug0,2023-10-26T00:00:00.000,153rd Street,Queens,11355,4083700,QN0706,40.745617,-73.814417,7.32,No,,nearly_tidy_weasel,fs5-00884,good,2026-04-01T15:10:05.657Z,pluvial,2023-10-26T00:00:00,['dep'],False
M - W 143rd St/Frederick Douglass Blvd,M-w-143rd-st-frederick-douglass-blvd-1yhi00,2024-07-02T00:00:00.000,West 144th Street,Manhattan,10030,1025900,MN1002,40.822214,-73.942642,13.11,No,,really_nice_roughy,fs5-00705,good,2026-03-30T20:06:42.228Z,pluvial,2024-07-02T10:00:00,['dep'],False
BX - W 232nd St/Irwin Ave,BX-irwin-ave-w-232nd-st-2nie80,2025-10-31T00:00:00.000,West 232nd Street,Bronx,10463,2028900,BX0802,40.882315,-73.907927,10.08,No,,helpless_teal_bulldog,fs3-00547,good,2026-02-03T15:56:13.474Z,pluvial,2025-10-31T12:36:00,,False
Q - 25th Ave/ 43rd St,Q-25th-ave-43rd-st-2ausk0,2025-02-27T00:00:00.000,25th Avenue,Queens,11103,4014300,QN0104,40.766816,-73.909423,10.47,No,,repeatedly-quality-cardinal,fs5-00701,good,2026-04-01T18:55:24.480Z,pluvial,2025-02-27T12:00:00,,False
Q - 30th Ave/77th St,Q-30th-ave-77th-st-1vcm40,2024-05-02T00:00:00.000,77th Street,Queens,11370,4030903,QN0301,40.760622,-73.891141,10.55,No,,early_many_oyster,fs3-00192,good,2026-01-23T15:36:46.851Z,pluvial,2024-05-02T00:00:00,['community'],False
Q - 78th St/ Atlantic Ave,Q-78th-st-atlantic-ave-2bkxj0,2025-03-13T00:00:00.000,78th Street,Queens,11416,4003400,QN0904,40.684349,-73.861527,11.65,No,,illegally-rested-cow,fs3-00162,dead,2026-05-19T19:16:49.199Z,pluvial,2025-03-13T14:45:00,,False
SI - Saybrook St/Croft Pl,SI-saybrook-st-croft-pl-2n5eg0,2025-10-24T00:00:00.000,Saybrook Street,Staten Island,10314,5027301,SI0204,40.605167,-74.160819,10.94,No,,old_blue_treefrog,fs3-00217,noisy,2026-06-01T19:09:06.890Z,pluvial,2025-10-24T12:12:00,,False
BK - Columbia St/Bay St,BK-columbia-st-bay-st-0pzkk0,2022-02-18T00:00:00.000,Columbia Street,Brooklyn,11231,3005302,BK0601,40.673267,-74.008418,12.83,No,,vastly_saving_whale,fs-00012,signal,2025-08-15T16:09:02.586Z,pluvial,2022-02-18T00:00:00,['community'],True
BK - Avenue Y/E 14th St,BK-avenue-y-e-14th-st-20ru10,2024-08-15T00:00:00.000,East 14th Street,Brooklyn,11235,3059000,BK1503,40.589699,-73.955668,11.85,No,,easily_immune_glider,fs3-00147,good,2026-05-20T18:39:23.237Z,pluvial,2024-08-15T12:03:00,['community'],True
Q - Sunbury Rd/Merrick Blvd,Q-sunbury-road-merrick-boulevard-20px3c,2024-08-14T00:00:00.000,Sunbury Road,Queens,11434,4036800,QN1205,40.683301,-73.768533,14.65,No,,gladly_amazed_corgi,fs3-00159,noisy,2026-04-09T20:12:45.774Z,pluvial,2024-08-14T11:14:00,['dep'],False
BK - Tompkins Ave/ Fulton St,BK-decatur-st-tompkins-ave-2mfii0,2025-10-10T00:00:00.000,Tompkins Avenue,Brooklyn,11216,3026900,BK0301,40.6802,-73.94321,10.24,No,,instantly-possible-griffon,fs5-00804,good,2026-04-13T14:15:28.311Z,pluvial,2025-10-10T12:42:00,['NYPD'],False
Q - 79th St/151st Ave,Q-79th-st-151-ave-1w2go0,2024-05-16T00:00:00.000,79th Street,Queens,11414,4006202,QN1003,40.667256,-73.855389,56.69,No,,safely_moral_husky,fs3-00373,good,2025-08-25T21:05:35.207Z,pluvial,2024-05-16T00:00:00,['dep'],True
BK - E104th St/ Ave M,BK-avenue-m-e-104th-st-2nick0,2025-10-31T00:00:00.000,East 104th Street,Brooklyn,11236,3101400,BK1803,40.64054,-73.88827,11.5,No,,thin_orange_wombat,fs3-00552,good,2025-11-03T16:24:49.934Z,pluvial,2025-10-31T12:00:00,"['resident', 'elected_official']",True
BX - Schurz Ave/Mullan Pl,BX-mullan-pl-pennyfield-ave-1vpks0,2024-05-09T00:00:00.000,Mullen Place,Bronx,10465,2011800,BX1002,40.815776,-73.807329,5.98,No,,loudly_bold_gecko,fs3-00270,good,2026-01-13T17:38:53.005Z,pluvial,2024-05-09T00:00:00,['dep'],True
M - E 79th St/ 1st Ave,M-e-79th-st-1st-ave-29txio,2025-02-07T00:00:00.000,East 79th Street,Manhattan,10075,1013203,MN0801,40.77222,-73.95258,5.28,No,,factually-normal-lynx,fs5-00603,noisy,2026-06-09T15:33:05.779Z,pluvial,2025-02-07T14:16:00,,False
Q - 100th St/34th Ave,Q-34th-ave-100th-st-1vcjc0,2024-05-02T00:00:00.000,100th Street,Queens,11368,4037700,QN0303,40.755249,-73.868158,9.84,No,,purely_tight_gannet,fs3-00378,dead,2026-06-09T14:28:31.339Z,pluvial,2024-05-02T00:00:00,['community'],False
Q - 47th Ave/102nd St,Q-47th-ave-102nd-st-20pwg0,2024-08-14T00:00:00.000,102nd Street,Queens,11368,4041300,QN0402,40.744845,-73.861614,11.54,No,,unduly_great_grub,fs5-00749,good,2026-04-01T16:19:37.273Z,pluvial,2024-08-14T11:00:00,['community'],False
SI - Olympia Blvd/ Mapleton Ave,SI-olympia-blvd-mapleton-ave-1dee80,2023-05-19T00:00:00.000,Olympia Boulevard,Staten Island,10306,5011203,SI0202,40.573983,-74.091884,11.65,Yes,,widely_full_weevil,fs5-00722,good,2026-06-03T15:14:44.133Z,coastal,2023-05-19T00:00:00,['dep'],True
Q - Church Rd/E 6th Rd,Q-church-rd-e-6th-rd-2jvgso,2025-08-21T00:00:00.000,"Church Road, 101st Street",Queens,11693,4107201,QN1403,40.60918,-73.817947,10.35,Yes,,chilly_indigo_cobra,fs3-00196,good,2026-01-09T18:28:16.371Z,coastal,2025-08-21T19:46:00,,True
BX - Gillespie Ave/ Lasalle Ave,BX-gillespie-ave-la-salle-ave-291wwo,2025-01-23T00:00:00.000,Gillespie Avenue,Bronx,10461,2018400,BX1002,40.839289,-73.830338,8.31,No,,publicly-stunning-airedale,fs3-00540,good,2026-01-09T18:03:50.557Z,pluvial,2025-01-23T11:10:00,['dep'],False
BX - Tier St/William Ave,BX-tier-st-william-ave-1hd2c0,2023-08-04T00:00:00.000,Tier Street,Bronx,10464,2051601,BX1003,40.847966,-73.789598,12.83,Yes,2023-10-12T00:00:00.000,helpful_empty_garden,fs5-00656,good,2026-03-30T20:18:36.334Z,coastal,2023-10-12T00:00:00,['community'],True
BK - Howard Ave/ Macon St,Q-onderdonk-ave-flushing-ave-2mf9uc,2025-10-10T00:00:00.000,Howard Avenue,Brooklyn,11233,3037700,BK0302,40.684294,-73.920195,10.47,No,,nicely-emerging-escargot,fs5-00674,good,2026-06-09T15:39:54.660Z,pluvial,2025-10-10T09:35:00,['dep'],False
BK - Halsey St/ Throop Ave,BK-halsey-st-throop-ave-2mfhfo,2025-10-10T00:00:00.000,Halsey Street,Brooklyn,11216,3026700,BK0301,40.682874,-73.941032,7.28,No,,carefully-new-lion,fs5-00502,noisy,2026-05-20T18:35:30.925Z,pluvial,2025-10-10T12:19:00,['dep'],False
BK - E102nd St/ Ave N,BK-winthrop-st-remsen-ave-2nick0,2025-10-31T00:00:00.000,Remsen Avenue,Brooklyn,11212,3086600,BK1703,40.63781,-73.8876,3.94,No,,tall_white_jellyfish,fs3-00260,good,2026-01-20T20:26:38.892Z,pluvial,2025-10-31T12:00:00,['resident'],True
Q - 56th Ave/ Springfield Blvd,Q-56th-ave-springfield-blvd-1zbc0d,2025-09-11T00:00:00.000,56th Avenue,Queens,11364,4138501,QN1102,40.75255,-73.7591,8.19,No,,officially-immense-grub,fs5-00462,good,2026-03-16T15:47:26.199Z,pluvial,2025-09-11T12:00:00,,False
Q - 120th Ave/177th Pl,Q-sunbury-road-177th-place-20pwtc,2024-08-14T00:00:00.000,177th Place,Queens,11434,4036800,QN1205,40.685102,-73.767066,8.5,No,,slowly_actual_jay,fs3-00160,good,2025-08-15T16:09:02.586Z,pluvial,2024-08-14T11:08:00,"[""\t Queens Borough President's Office""]",False
Q - 76th St/37th Rd,Q-76th-st-37th-rd-214qm0,2024-08-22T00:00:00.000,37th Road,Queens,11372,4028700,QN0301,40.747519,-73.889395,8.78,No,,fairly_right_kiwi,fs3-00214,good,2026-01-23T20:23:12.169Z,pluvial,2024-08-22T11:18:00,"[""Queens Borough President's Office""]",False
BX - Radcliffe Ave/Van Nest Ave,BX-van-nest-ave-radcliff-ave-2lnmso,2025-09-25T00:00:00.000,Van Nest Avenue,Bronx,10462,2025200,BX1102,40.846488,-73.856049,11.06,No,,tidy_green_gecko,fs5-00420,good,2026-05-11T16:28:22.509Z,pluvial,2025-09-25T11:22:00,,False
BK - Winthrop St/ E 46th St,BK-e-46th-st-winthrop-st-2rrxg0,2026-01-22T00:00:00.000,Winthrop Street,Brooklyn,11203,3087600,BK0902,40.65809,-73.93521,10.83,No,,jolly-handy-chipmunk,fs5-00868,good,2026-04-13T14:31:32.284Z,pluvial,2026-01-22T10:24:00,,False
BK - Ocean View Ave / Brighton 3rd St,BK-oceanview-ave-ocean-view-ave-24qgzc,2024-10-31T00:00:00.000,"Oceanview Avenue, Ocean View Avenue",Brooklyn,11235,3036400,BK1303,40.579018,-73.965033,8.39,No,,jolly_tight_swine,fs3-00125,good,2025-08-15T16:12:25.212Z,pluvial,2024-10-31T12:38:00,,True
M - Bennett Ave/Broadway,M-bennett-ave-broadway-1yhi00,2024-07-02T00:00:00.000,Bennett Avenue,Manhattan,10040,1027900,MN1202,40.859338,-73.931534,17.28,No,,evenly_alive_grouse,fs3-00284,good,2025-09-02T18:54:14.277Z,pluvial,2024-07-02T15:09:00,['community'],False
Q - Linden Pl/ 28th Ave,Q-whitestone-expressway-linden-pl-2kxrqc,2025-09-11T00:00:00.000,Linden Place,Queens,11354,4090700,QN0701,40.772019,-73.833792,4.69,No,,broadly-simple-macaw,fs5-00784,good,2026-06-03T20:19:21.470Z,pluvial,2025-09-11T12:11:00,,True
Q - 145th Rd/Springfield Blvd,Q-145th-road-springfield-boulevard-20pw7o,2024-08-14T00:00:00.000,Springfield Boulevard,Queens,11413,4032000,QN1306,40.663945,-73.759328,9.25,No,,mostly_full_yeti,fs5-00684,good,2026-04-27T21:46:23.560Z,pluvial,2024-08-14T10:55:00,['nycem'],True
BX - Newman Ave/ Gildersleeve Ave,BX-newman-ave-gildersleeve-ave-2o89w0,2025-11-14T00:00:00.000,Newman Avenue,Bronx,10473,2000400,BX0902,40.80957,-73.85431,8.66,No,,neat_gold_moth,fs3-00381,good,,pluvial,2025-11-14T12:00:00,,True
M - Delancey St/FDR Dr,M-delancey-st-fdr-dr-2suzbo,2026-02-12T00:00:00.000,"FDR Drive, FDR Drive West Lane, East River Drive",Manhattan,10002,1001001,MN0302,40.71467,-73.976881,6.85,No,,nationally-simple-peacock,fs5-00753,good,2026-06-03T20:03:42.005Z,pluvial,2026-02-12T12:31:00,,True
BK - 9th St/Smith St,BK-9th-st-smith-st-0etvg0,2021-07-16T00:00:00.000,9th Street,Brooklyn,11215,3011902,BK0601,40.673654,-73.995396,13.07,No,2021-12-10T00:00:00.000,overly_heroic_squid,fs3-00334,good,2026-01-13T16:50:34.301Z,pluvial,2021-12-14T11:43:00,['internal'],True
M - E 108th St/1st Ave,M-e-108th-st-1st-ave-1vrco0,2024-05-10T00:00:00.000,East 108th Street,Manhattan,10029,1017000,MN1101,40.790943,-73.939451,1.81,No,,easily_fond_kiwi,fs3-00206,good,2025-11-20T16:10:45.535Z,pluvial,2024-05-10T00:00:00,['community'],True
BK - Carroll St/4th Av,BK-carroll-st-4th-av-0ery00,2021-07-15T00:00:00.000,Carroll Street,Brooklyn,11215,3011901,BK0601,40.676281,-73.984089,5.67,No,,weekly_poetic_guinea,fs3-00158,good,2026-01-09T17:36:58.840Z,pluvial,2021-07-15T00:00:00,['internal'],False
Q - Deerfield Rd/Beach 28th St,Q-deerfield-rd-beach-28th-st-1zdul0,2024-07-19T00:00:00.000,Beach 28th Street,Queens,11691,4099801,QN1401,40.597343,-73.761458,9.37,Yes,,unduly_simple_wombat,fs3-00273,dead,2026-05-26T18:20:40.720Z,coastal,2024-07-19T12:15:00,['community'],True
Q - 24th St/Bay 24th St,Q-bay-24-st-cornage-ave-1w2rs0,2024-05-16T00:00:00.000,Bay 24th Street,Queens,11691,4100804,QN1401,40.602601,-73.761457,8.54,No,,surely_light_grouse,fs5-00793,good,2026-04-27T21:55:00.240Z,pluvial,2024-05-16T00:00:00,['dep'],False
Q - Cresent St/ Hoyt Ave,Q-crescent-st-hoyt-avenue-south-2ausk0,2025-02-27T00:00:00.000,"Crescent Street, 25th Street",Queens,11102,4006900,QN0103,40.77293,-73.92155,9.29,No,,sincerely-grateful-kite,fs3-00318,signal,2026-06-02T18:58:56.879Z,pluvial,2025-02-27T12:00:00,['dep'],False
SI - Fabian St/Sneden Ave,SI-fabian-st-sneden-ave-20e7zc,2024-08-08T00:00:00.000,Sneden Avenue,Staten Island,10312,5017005,SI0304,40.54111,-74.174256,5.28,No,,rarely_pet_marmot,,needs_sensor,2026-05-28T20:28:17.839Z,pluvial,2024-08-08T03:38:00,"['dep', 'MTA']",False
BX - Hobart Ave/ Coddington Ave,BX-hobart-ave-coddington-ave-291xu0,2025-01-23T00:00:00.000,Hobart Avenue,Bronx,10461,2026400,BX1002,40.841029,-73.828842,6.5,No,,reliably-driven-martin,fs3-00281,good,2025-08-15T16:12:25.212Z,pluvial,2025-01-23T11:30:00,['dep'],False
M - E 23rd St/FDR Drive,M-e-23rd-st-asser-levy-pl-2mfdvc,2025-10-10T00:00:00.000,East 23rd Street,Manhattan,10010,1006200,MN0603,40.735873,-73.975937,9.02,No,,bleakly-accurate-porpoise,fs5-00797,good,2026-03-04T21:19:25.093Z,pluvial,2025-10-10T11:02:00,,True
Q - Beach 66th St/Thursby Ave,Q-beach-66th-st-thursby-ave-1a5vs0,2023-03-17T00:00:00.000,Beach 66th Street,Queens,11692,4096400,QN1402,40.595956,-73.795556,7.44,Yes,,small_red_chicken,fs5-00779,good,2026-04-06T15:57:32.301Z,coastal,2023-03-17T00:00:00,['community'],True
BK - Church Ave/E 53rd St,BK-church-ave-e-53rd-st-215zzc,2024-08-23T00:00:00.000,Church Avenue,Brooklyn,11203,3086200,BK1703,40.652245,-73.927709,23.9,No,,gently_fun_gator,fs3-00526,good,2026-06-01T16:15:33.623Z,pluvial,2024-08-23T03:38:00,,False
BK - Wallabout St/Throop Ave,BK-wallabout-st-throop-ave-19qu40,2023-03-09T00:00:00.000,Wallabout Street,Brooklyn,11206,3050700,BK0103,40.702812,-73.946768,9.13,No,,mean_flying_fish,fs-00064,good,2026-06-03T20:51:57.537Z,pluvial,2023-03-09T00:00:00,['dep'],True
BX - Britton St/Bronx Park E,BX-britton-st-bronx-park-east-2caoio,2025-03-27T00:00:00.000,Britton Street,Bronx,10467,2033601,BX1104,40.86667,-73.87028,1.93,No,,ideally-polished-humpback,fs3-00324,good,2026-01-20T20:17:12.644Z,pluvial,2025-03-27T12:28:00,,False
Q - 133rd St/97th Ave,Q-133rd-st-97th-ave-21vxbc,2024-09-06T00:00:00.000,97th Avenue,Queens,11419,4015000,QN0903,40.694502,-73.815287,5.08,No,,surely-tough-leech,fs3-00448,good,2026-04-13T16:06:02.450Z,pluvial,2024-09-06T03:38:00,,False
Q - 177th St/129th Ave,Q-177th-st-129th-ave-20pxgo,2024-08-14T00:00:00.000,177th Street,Queens,11434,4033401,QN1204,40.680464,-73.765682,10.08,No,,mostly_poetic_wren,fs3-00352,good,2026-01-09T18:14:11.537Z,pluvial,2024-08-14T11:22:00,['dep'],False
M - Market Slip/South St,M-market-slip-s-st-2suyoc,2026-02-12T00:00:00.000,Market Slip,Manhattan,10002,1000800,MN0301,40.709579,-73.994078,10.79,No,,scarcely-elegant-emu,fs5-00654,good,2026-06-03T20:06:04.130Z,pluvial,2026-02-12T12:17:00,,True
M - W 42nd St/11th Ave,M-11th-ave-w-42nd-st-2nvbn0,2025-11-07T00:00:00.000,West 42nd Street,Manhattan,10036,1012901,MN0402,40.760792,-73.998075,4.57,No,,smooth_red_panda,fs5-00650,good,2026-05-23T01:56:12.332Z,pluvial,2025-11-07T12:09:00,,True
BX - White Plains Rd/Wood Ave,BX-white-plains-rd-wood-ave-2lnn60,2025-09-25T00:00:00.000,"White Plains Road, Pugsley Road",Bronx,10462,2021601,BX0901,40.835616,-73.863275,11.18,No,,heavy_violet_wasp,fs5-00498,good,2026-03-16T15:56:56.895Z,pluvial,2025-09-25T11:30:00,,False
BK - Vermont St/Stanley Ave,BK-vermont-st-stanley-ave-215zzc,2024-08-23T00:00:00.000,Stanley Avenue,Brooklyn,11207,3110400,BK0503,40.657638,-73.888062,8.03,No,,daily_merry_racer,fs3-00197,good,2026-06-09T15:36:49.485Z,pluvial,2024-08-23T03:38:00,,True
Q - Springfield Blvd/ Murdock Ave,Q-springfield-blvd-murdock-ave-2msf80,2025-10-17T00:00:00.000,Springfield Boulevard,Queens,11429,4053401,QN1304,40.70329,-73.74068,8.9,No,,strangely-precise-cricket,fs3-00554,noisy,2026-05-05T15:27:31.123Z,pluvial,2025-10-17T12:00:00,['dep'],False
Q - 14th St/ 31st Rd,Q-31st-rd-14th-st-2ausk0,2025-02-27T00:00:00.000,31st Road,Queens,11106,4007700,QN0102,40.767691,-73.93232,9.09,No,,radically-fine-calf,fs3-00239,good,2026-01-09T18:11:16.500Z,pluvial,2025-02-27T12:00:00,['dep'],True
BK - Kingston Ave/Rutland Rd,BK-kingston-ave-rutland-rd-1dnqc0,2023-05-24T00:00:00.000,Kingston Avenue,Brooklyn,11203,3081000,BK0902,40.659991,-73.942603,13.11,No,,mainly_kind_boxer,fs-00075,good,2026-06-03T20:53:27.549Z,pluvial,2023-05-24T00:00:00,[],False
M - 126th St/7th Av,M-126th-st-7th-av-0mi140,2021-12-12T00:00:00.000,"West 126th Street, Sylvia P Woods Way, James Brown Way",Manhattan,10027,1022400,MN1002,40.80983,-73.948101,9.96,No,,easily_cosmic_slug,fs5-00755,good,2026-04-27T15:00:46.601Z,pluvial,2021-12-12T00:00:00,[],False
M - Rivington St/Suffolk St,M-rivington-st-suffolk-st-1zmfzc,2024-07-24T00:00:00.000,Suffolk Street,Manhattan,10002,1003001,MN0302,40.719461,-73.985789,12.95,No,,barely_aware_bee,fs3-00265,good,2025-12-22T17:01:13.833Z,pluvial,2024-07-24T03:38:00,['nycem'],False
BX - Southern Blvd/Longwood Ave,BX-longwood-ave-southern-blvd-1vpnk0,2024-05-09T00:00:00.000,Longwood Avenue,Bronx,10459,2008500,BX0202,40.816353,-73.896467,3.11,No,,only_free_oyster,fs3-00166,good,2026-03-30T20:02:08.211Z,pluvial,2024-05-09T00:00:00,['dep'],False
SI - Seaview Ave/Hylan Blvd,SI-seaview-ave-hylan-blvd-1aiug0,2023-03-24T00:00:00.000,Seaview Avenue,Staten Island,10305,5007001,SI0201,40.586602,-74.09168,14.65,Yes,,jolly-novel-boa,fs5-00655,good,2026-04-20T14:26:25.025Z,coastal,2023-03-24T00:00:00,[],True
Q - 184th St/91st Ave,Q-184th-st-91st-ave-1lmro0,2023-10-26T00:00:00.000,184th Street,Queens,11423,4047000,QN1201,40.710475,-73.776529,7.83,No,,wholly_needed_cougar,fs3-00527,good,2026-01-13T17:36:34.676Z,pluvial,2023-10-26T00:00:00,['community'],False
M - E 6th St/FDR Dr,M-e-6th-st-fdr-drive-1vrfg0,2024-05-10T00:00:00.000,East 6th Street,Manhattan,10009,1002000,MN0303,40.721652,-73.975084,7.83,No,,lively_stable_gannet,fs3-00267,good,2025-12-09T17:20:24.308Z,pluvial,2024-05-10T00:00:00,['community'],True
M - Indian Rd/W 215th St,M-indian-rd-w-215th-st-1yhqc0,2024-07-02T00:00:00.000,West 218th Street,Manhattan,10034,1029700,MN1292,40.873076,-73.918458,5.63,Yes,,wholly_gentle_ghost,fs5-00904,good,2026-03-30T19:56:25.138Z,coastal,2024-07-02T15:01:00,['community'],True
BK - Hoyt St/5th St,BK-hoyt-st-5th-st-007sk0,2020-10-05T00:00:00.000,Hoyt Street,Brooklyn,11231,3007700,BK0601,40.676672,-73.994591,17.17,No,,daily_new_falcon,fs-00005,good,2026-01-09T17:45:26.944Z,pluvial,2020-10-05T00:00:00,[],True
BK - 85th St 24th Ave,BK-85th-st-24th-ave-1xv780,2024-06-20T00:00:00.000,85th Street,Brooklyn,11214,3029800,BK1103,40.599746,-73.988479,10.79,No,,widely_sweet_sheep,fs3-00249,good,2026-01-13T15:38:02.799Z,pluvial,2024-06-20T00:00:00,['dep'],True
BX - Ditmars St/Hunter Ave 2,BX-ditmars-st-hunter-ave-1kwrk0,2023-10-12T00:00:00.000,Ditmars Street,Bronx,10464,2051601,BX1003,40.849297,-73.789528,0.94,Yes,,lame_wicked_maid,fs5-00622,hardware_issue,2026-06-10T16:23:28.848Z,coastal,2023-10-12T00:00:00,['community'],True
Q - Park Ln/Park Lane South,Q-park-lane-park-lane-south-21u2nc,2024-09-05T00:00:00.000,"Park Lane South, Park Place, Onslow Place",Queens,11415,4013400,QN0901,40.707823,-73.837171,13.46,No,,surely-amused-shark,fs3-00451,good,2026-01-20T20:15:10.054Z,pluvial,2024-09-05T03:38:00,,False
BK - Winthrop St/ E 94th St,BK-winthrop-st-e-94th-st-1dnt40,2023-05-24T00:00:00.000,Winthrop Street,Brooklyn,11212,3088400,BK1704,40.661173,-73.924517,8.39,No,,slowly_key_husky,fs5-00865,good,2026-04-13T18:45:48.468Z,pluvial,2023-05-24T00:00:00,[],False
BX - College Ave/E 165th St,BX-college-ave-e-165th-st-214t90,2024-08-22T00:00:00.000,East 165th Street,Bronx,10456,2017500,BX0401,40.829109,-73.915682,18.39,No,,subtly-grand-weasel,fs3-00140,dead,2026-06-10T22:03:40.891Z,pluvial,2024-08-22T12:15:00,['dep'],False
BX - Tier St/William Ave,BX-tier-st-william-ave-1kwuc0,2023-10-12T00:00:00.000,Tier Street,Bronx,10464,2051601,BX1003,40.848094,-73.789491,3.46,Yes,,helpful_empty_garden,fs5-00656,good,2026-03-30T20:18:36.334Z,coastal,2023-10-12T00:00:00,['community'],True
Q - Brookville Blvd/ Snake Rd 3,Q-brookville-blvd-149th-ave-3-23nfdo,2024-10-10T00:00:00.000,Brookville Boulevard,Queens,11422,4066401,QN1307,40.649528,-73.74561,18.46,Yes,,easily-dominant-snake,fs3-00228,good,2026-01-09T18:27:49.765Z,coastal,2024-10-10T10:37:00,,True
Q - 160th St/Brinkerhoff Ave,Q-160th-st-brinkerhoff-ave-1ju140,2023-09-21T00:00:00.000,"110th Avenue, Brinkerhoff Avenue",Queens,11433,4026000,QN1202,40.692628,-73.790908,9.49,No,2025-09-17T00:00:00.000,modern_teal_warthog,fs5-00633,good,2026-05-04T14:23:14.435Z,pluvial,2025-09-17T16:06:00,,False
Q - W 16th Rd/Cross Bay Blvd,Q-w-16th-rd-cross-bay-blvd-1zdu4c,2024-07-19T00:00:00.000,West 16th Road,Queens,11693,4107201,QN1403,40.601616,-73.820453,8.9,Yes,,merely_equal_alien,fs3-00231,good,2025-08-28T16:57:28.465Z,coastal,2024-07-19T12:05:00,['community'],True
M - E 108th St/Park Ave,M-e-108th-st-park-ave-1kwx40,2023-10-12T00:00:00.000,East 108th Street,Manhattan,10029,1017401,MN1101,40.794408,-73.947289,9.57,No,,defeated_smelly_cough,fs3-00134,good,2025-08-08T18:31:01.344Z,pluvial,2023-10-12T00:00:00,['dep'],True
M - Vermilyea Ave/ Academy St,M-academy-st-vermilyea-ave-2nidwc,2025-10-31T00:00:00.000,Vermilyea Avenue,Manhattan,10034,1029100,MN1203,40.86551,-73.924308,6.26,No,,happy_orange_grasshopper,fs3-00528,good,2025-11-10T17:06:00.449Z,pluvial,2025-10-31T12:29:00,,True
BX - St Raymond Ave/ Castle Hill Ave,BX-castle-hill-ave-saint-raymonds-ave-2920m0,2025-01-23T00:00:00.000,"Saint Raymond's Avenue, Saint Raymond South Avenue, Saint Raymond Avenue",Bronx,10462,2022200,BX0904,40.837811,-73.852669,9.21,No,,supposedly-factual-husky,fs3-00316,good,2025-10-27T14:55:21.868Z,pluvial,2025-01-23T12:30:00,['dep'],False
M - W 147th St/Malcolm X Blvd,M-w-147th-st-malcolm-x-blvd-1yhks0,2024-07-02T00:00:00.000,West 147th Street,Manhattan,10039,1023400,MN1002,40.821781,-73.935526,16.69,No,,openly_tough_jay,fs3-00274,good,2026-01-13T17:12:27.283Z,pluvial,2024-07-02T14:55:00,['dep'],True
BK - Flatlands 8th St/E 108th St,BK-flatlands-8th-st-e-108th-st-1umx40,2024-04-18T00:00:00.000,Flatlands 8th Street,Brooklyn,11236,3101800,BK1803,40.640908,-73.884565,13.82,No,,widely_comic_insect,fs3-00375,good,2026-03-16T16:41:47.221Z,pluvial,2024-04-18T00:00:00,['community '],True
BK - Dwight St/King St,BK-dwight-st-king-st-0pznc0,2022-02-18T00:00:00.000,Dwight Street,Brooklyn,11231,3008500,BK0601,40.676352,-74.008561,9.09,No,,openly_driven_tarpon,fs-00019,noisy,2026-06-09T15:55:33.523Z,pluvial,2022-02-18T00:00:00,['community'],True
M - Lafayette St/White St,M-lafayette-st-white-st-1zmfzc,2024-07-24T00:00:00.000,"Lafayette Street, Federal Plaza",Manhattan,10013,1003100,MN0102,40.717411,-74.001524,6.38,No,,lively_fancy_pup,fs5-00605,good,2026-05-23T01:56:59.181Z,pluvial,2024-07-24T03:38:00,['dep'],True
BK - Farragut Rd/Brooklyn Ave,BK-farragut-rd-brooklyn-ave-20rvdc,2024-08-15T00:00:00.000,Brooklyn Avenue,Brooklyn,11210,3078200,BK1702,40.636771,-73.942329,11.02,No,,really_subtle_fawn,fs3-00142,good,2026-01-09T17:42:20.748Z,pluvial,2024-08-15T12:32:00,['community'],False
BK - Church Ave/E10th St,BK-church-ave-e10th-st-1lbck0,2023-10-20T00:00:00.000,"Church Avenue, New York 27, New York State Route 27, State Route 27",Brooklyn,11218,3050600,BK1402,40.64673,-73.970166,7.2,No,,firmly_needed_heron,fs-00113,good,2025-08-08T18:40:45.568Z,pluvial,2023-10-20T00:00:00,['dep'],False
BK - Caton Ave/E Eighth St,BK-caton-ave-e-8th-st-2lavl0,2025-09-18T00:00:00.000,"Caton Avenue, State Route 27",Brooklyn,11218,3050401,BK0701,40.647972,-73.972408,8.31,No,,proud_green_ladybug,fs5-00459,good,2026-05-20T18:12:49.894Z,pluvial,2025-09-18T14:03:00,,False
M - Varick St/Canal St,M-varick-st-canal-st-1zmfzc,2024-07-24T00:00:00.000,Canal Street,Manhattan,10013,1003300,MN0102,40.722851,-74.006881,11.54,No,,widely_brief_bee,fs3-00384,good,2025-12-09T17:02:35.879Z,pluvial,2024-07-24T03:38:00,['mocej'],True
BK - Dover St/Shore Blvd,BK-dover-st-shore-blvd-20cdbc,2024-08-07T00:00:00.000,Dover Street,Brooklyn,11235,3061200,BK1503,40.582007,-73.949998,11.85,No,,firmly_wired_koala,fs3-00348,good,2025-08-15T16:09:02.586Z,pluvial,2024-08-07T03:38:00,['community'],True
BK - 9th St/Smith St,BK-9th-st-smith-st-0mlfc0,2021-12-14T00:00:00.000,9th Street,Brooklyn,11215,3011902,BK0601,40.673401,-73.994892,8.15,No,,overly_heroic_squid,fs3-00334,good,2026-01-13T16:50:34.301Z,pluvial,2021-12-14T11:43:00,['internal'],True
Q - 192nd St/ 39th Ave,Q-39th-ave-192nd-st-2kxsh0,2025-09-11T00:00:00.000,39th Avenue,Queens,11358,4113900,QN1101,40.76193,-73.78986,5.2,No,,primarily-patient-mastiff,fs5-00704,good,2026-04-01T14:43:40.172Z,pluvial,2025-09-11T12:27:00,,False
BK - Fountain Ave/Flatlands Ave,BK-fountain-ave-flatlands-ave-215zzc,2024-08-23T00:00:00.000,Flatlands Avenue,Brooklyn,11239,3107001,BK0504,40.660318,-73.867307,7.8,No,,hugely_daring_owl,fs3-00234,good,2026-01-09T17:43:59.282Z,pluvial,2024-08-23T03:38:00,,True
Q - 44th Dr/ Vernon Blvd,Q-44th-dr-vernon-blvd-2if0k0,2025-07-24T00:00:00.000,44th Drive,Queens,11101,4001903,QN0201,40.74908,-73.95193,11.38,No,,overly-notable-dory,fs3-00100,good,2025-10-30T19:23:23.661Z,pluvial,2025-07-24T12:00:00,['dep'],True
M - Sherman Ave/Academy St,M-academy-st-sherman-ave-2nido0,2025-10-31T00:00:00.000,Sherman Avenue,Manhattan,10034,1029100,MN1203,40.864401,-73.923884,7.09,No,,pretty_violet_turkey,fs3-00550,noisy,2026-05-19T19:40:49.620Z,pluvial,2025-10-31T12:24:00,,True
Q - Liberty Ave/ 183rd St,Q-liberty-ave-183rd-st-2msf80,2025-10-17T00:00:00.000,183rd Street,Queens,11423,4044400,QN1201,40.70549,-73.77576,12.05,No,,socially-caring-sunbird,fs5-00873,good,2026-05-04T14:35:11.608Z,pluvial,2025-10-17T12:00:00,['Researcher'],False
Q - 108th Ave/159th St,Q-108th-ave-159th-st-0vr200,2022-06-10T00:00:00.000,108th Avenue,Queens,11433,4025402,QN1202,40.695371,-73.794115,8.03,No,2023-09-21T00:00:00.000,weekly_exact_condor,fs5-00739,noisy,2026-05-20T16:24:22.830Z,pluvial,2023-09-21T00:00:00,[],False
SI - Dawson Ct/Dawson Cir,SI-dawson-court-dawson-circle-20e7zc,2024-08-08T00:00:00.000,Dawson Circle,Staten Island,10314,5029105,SI0204,40.604898,-74.166162,3.35,No,,sadly_calm_cattle,fs3-00121,good,2026-03-16T15:50:58.694Z,pluvial,2024-08-08T03:38:00,['dep'],False
Q - Beach 49th St/Rockaway Beach Blvd,Q-beach-49th-st-rockaway-beach-blvd-1zdu7o,2024-07-19T00:00:00.000,Beach 49th Street,Queens,11691,4097204,QN1402,40.593339,-73.779743,7.95,Yes,,simply_fancy_tapir,fs3-00330,good,2026-01-09T18:24:07.030Z,coastal,2024-07-19T12:07:00,"['dep, mta']",True
BK - 83rd St/21st Ave,BK-83rd-st-21st-ave-20rsoo,2024-08-15T00:00:00.000,83rd Street,Brooklyn,11214,3029000,BK1101,40.604882,-73.994148,9.37,No,,solely_modern_locust,fs3-00240,good,2026-02-18T16:15:33.142Z,pluvial,2024-08-15T11:34:00,['dep'],False
SI - Olympia/ Slater Blvd,SI-olympia-slater-blvd-1j3so0,2023-09-07T00:00:00.000,Slater Boulevard,Staten Island,10305,5011201,SI0202,40.579374,-74.08697,6.61,Yes,,kindly_expert_cobra,fs3-00215,noisy,2026-06-03T15:57:12.828Z,coastal,2023-09-07T00:00:00,['dep'],True
Q - 205th St/ 90th Ave,Q-205th-st-90th-ave-2msnf0,2025-10-17T00:00:00.000,205th Street,Queens,11423,4048400,QN1206,40.71765,-73.75812,8.54,No,2025-10-23T00:00:00.000,poorly-faithful-pangolin,fs5-00860,noisy,2026-05-11T16:23:58.268Z,pluvial,2025-10-17T14:57:00,,False
BX - Watson Ave/Close Ave,BX-watson-ave-close-ave-1zbbzc,2024-07-18T00:00:00.000,Close Avenue,Bronx,10472,2005200,BX0901,40.825626,-73.882366,24.37,No,,humbly_aware_rabbit,fs3-00264,non-ota,2025-08-28T19:50:04.246Z,pluvial,2024-07-18T03:38:00,['dep'],True
BK - Greene Ave / Grand Ave,BK-grand-ave-greene-ave-2jg3u0,2025-08-13T00:00:00.000,Greene Avenue,Brooklyn,11238,3023100,BK0204,40.687137,-73.962457,8.39,No,,slightly-one-longhorn,fs5-00640,good,2026-05-18T18:25:05.117Z,pluvial,2025-08-13T12:42:00,,False
BX - Brook Ave / E 149th St,BX-e-149th-st-brook-ave-1zbc0d,2025-09-04T00:00:00.000,Brook Avenue,Bronx,10455,2007100,BX0102,40.815088,-73.914993,8.9,No,,probably-helped-tiger,fs5-00776,good,2026-03-21T01:58:44.128Z,pluvial,2025-09-04T12:00:00,,False
BK - Concord St/Navy St,BK-concord-st-navy-st-1zmfzc,2024-07-24T00:00:00.000,Navy Street,Brooklyn,11201,3021100,BK0203,40.697836,-73.980408,12.24,No,,subtly_alert_marten,fs3-00292,good,2026-01-09T17:38:42.443Z,pluvial,2024-07-24T03:38:00,['nycem'],True
